,이름,지번주소,위도,경도
0,클라비스음악학원,경기도 부천시 고강동 480-1번지 스카이빌딩 6층,37.52534205,126.815545
1,라무지카아카데미음악학원,경기도 부천시 고강동 337번지 가람 5동 201호,37.52393338,126.8135801
2,고강비젼스터디보습학원,경기도 부천시 고강동 347-4번지 3층 일부,37.52675787,126.8163446
3,아이빈음악학원,경기도 부천시 고강동 389-4번지 3층 일부,37.52647743,126.8214022
4,고강보습학원,경기도 부천시 고강동 370-9번지 부강빌딩 3층 일부,37.52720103,126.8174069
5,영웅음악학원,경기도 부천시 고강동 350-10번지 3층,37.52839825,126.8167139
6,은하수음악학원,경기도 부천시 고강동 246번지 2층,37.53045347,126.8231574
7,알찬보습학원,경기도 부천시 고강동 292-2번지 제일빌딩 2층 일부,37.52792206,126.811907
8,G(지)탑보습학원,경기도 부천시 고강동 347-1번지 4층,37.52714579,126.8166604
9,한맥보습학원,경기도 부천시 고강동 285-6번지 영용빌딩 3층 일부,37.52853181,126.8157067
10,마루사이버독서실,경기도 부천시 고강동 389-3번지 4층,37.52654009,126.8211305
11,잉글리쉬무무고강제2보습학원,경기도 부천시 고강동 312-1번지 3층,37.52823117,126.8136258
12,하버드플러스보습학원,경기도 부천시 고강동 347-1번지 3층,37.52714579,126.8166604
13,드림+(플러스)보습학원,경기도 부천시 고강동 285번지 가동 2층,37.52895471,126.8153549
14,최강단과보습학원,"경기도 부천시 고강동 377-2번지 2,3층",37.52728445,126.8189
15,바르톡음악학원,"경기도 부천시 고강동 377-25번지 2층, 3층",37.52712224,126.8188778
16,최강단과보습학원,"경기도 부천시 고강동 377-2번지 2,3층",37.52728445,126.8189
17,예일음악학원,경기도 부천시 고강동 318번지 제일시장 11동 2층,37.52839468,126.8144626
18,스터디클럽독서실,"경기도 부천시 고강동 294-4번지 201호,401호",37.52481294,126.8114625
19,고강e(이)해법수학영어보습학원,경기도 부천시 고강동 370-10번지 3층,37.5272547,126.8171579
20,뉴월광음악학원,경기도 부천시 고강동 385-26번지 2층,37.52628498,126.8192984
21,쌤즈잉글리쉬보습학원,경기도 부천시 고강동 382-1번지 보명빌딩 2층,37.52803306,126.8194073
22,해냄에듀뮤엠영어수학보습학원,경기도 부천시 고강동 312번지 정일빌딩 2층,37.52825896,126.8141009
23,부천오정청담에이프릴외국어학원,경기도 부천시 고강동 294-13번지 동방빌딩 201호,37.52453363,126.8114632
24,삼성영어고리울보습학원,경기도 부천시 고강동 325-9번지 2층 일부,37.52681806,126.8261867
25,부천오정와이즈만영재교육보습학원,"경기도 부천시 고강동 294-13번지 동방빌딩 201호 일부,202호",37.52453363,126.8114632
26,MTM(엠티엠)영수단과보습학원,경기도 부천시 고강동 376번지 2층 일 (우측),37.52681408,126.8177134
27,잉글리쉬무무고강보습학원,경기도 부천시 고강동 411-3번지 남평빌딩 3층,37.52742783,126.824262
28,푸르넷보습학원,경기도 부천시 고강동 363-7번지 1층~2층,37.52956456,126.8192904
29,메가플러스보습학원,경기도 부천시 고강동 294-13번지 동방빌딩 302호,37.52453363,126.8114632
30,원플러스보습학원,경기도 부천시 고강동 350-4번지 오성빌딩 3층 일부,37.52883911,126.8163168
31,비상보습학원,경기도 부천시 고강동 399번지 대현맨션 3층,37.52556744,126.8214044
32,그림뜰미술학원,경기도 부천시 고강동 321-2번지 2층,37.5280065,126.8139884
33,육영웅변학원,경기도 부천시 고강동 292번지 한일빌딩 3층 일부,37.52784026,126.811466
34,태멘음악학원,경기도 부천시 고강동 310번지 동호빌딩 4층,37.52794962,126.8122351
35,수주독서실,"경기도 부천시 고강동 312번지 정일빌딩 3층일부,4층",37.52825896,126.8141009
36,오렌지고강독서실,경기도 부천시 고강동 473-1번지 인일빌딩 3층,37.52719848,126.8157892
37,코너스톤어학원,경기도 부천시 고강동 377-4번지 2층일부. 3층,37.52684216,126.8183807
38,한사랑음악학원,경기도 부천시 고강동 398-7번지 성산영광타운 2층 일부,37.52583923,126.8223766
39,빨간펜수학의달인고리울수학교습소,경기도 부천시 고강동 325-9번지 103호,37.52681806,126.8261867
40,피아노치는아이들음악교습소,경기도 부천시 고강동 325-9번지 102호 일부,37.52681806,126.8261867
41,프리즘음악교습소,경기도 부천시 고강동 414번지 2층,37.52645482,126.8242983
42,링크잉글리쉬영어교습소,경기도 부천시 고강동 414-25번지 2층 일부,37.52556213,126.8238253
43,색연필미술교습소,경기도 부천시 고강동 411-3번지 남평빌딩 1층,37.52742783,126.824262
44,그림나무미술교습소,경기도 부천시 고강동 383번지 중원빌딩 1층 일부,37.52784363,126.8192607
45,차수학고리울수학교습소,경기도 부천시 고강동 414-25번지 2층 일부,37.52556213,126.8238253
46,잉글리쉬팩토리영어교습소,경기도 부천시 고강동 470-2번지 부일빌딩 3층 일부,37.52780978,126.8149279
47,정수바둑교습소,경기도 부천시 고강동 310-22번지 2층 일부,37.52781438,126.8121788
48,원리수학교습소,경기도 부천시 고강동 392-21번지 1층 일부,37.52844949,126.8206847
49,봄미술교습소,경기도 부천시 고강동 377-30번지 2층,37.52673434,126.8185733
50,수주해법영어교습소,경기도 부천시 고강동 359번지 2층,37.53011786,126.8216875
51,오늘의수학교습소,경기도 부천시 고강동 377-4번지 2층 일부,37.52684216,126.8183807
52,즐쌤의수학교습소,경기도 부천시 괴안동 170-5번지 1층 일부,37.48607035,126.8171243
53,블루미용학원,경기도 부천시 괴안동 115번지 하이트프라자 201호 일부,37.48312402,126.8114332
54,가온수학교습소,경기도 부천시 괴안동 99-1번지 신일해피트리아파트 101호,37.47951796,126.8101536
55,포네음악교습소,경기도 부천시 괴안동 159-2번지 제이팰리스 1층 102호,37.48168106,126.816208
56,비젼영어교습소,경기도 부천시 괴안동 204-5번지 삼익세라믹아파트 상가동 206호,37.47631542,126.8023273
57,연세수학교습소,경기도 부천시 괴안동 204-5번지 삼익세라믹아파트 상가동 206호 일부,37.47631542,126.8023273
58,스카이컴퓨터교습소,경기도 부천시 괴안동 155-8번지 5층 501호,37.47623442,126.8077653
59,지현음악교습소,경기도 부천시 괴안동 70-13번지 동구빌딩 2층 일부,37.47923285,126.8066269
60,글로리아뮤직(GloriaMusic)음악교습소,경기도 부천시 괴안동 99-1번지 신일해피트리아파트 상가 106호,37.47951796,126.8101536
61,송미주아트톡미술교습소,경기도 부천시 괴안동 164-6번지 염광아파트 2층 일부,37.47609429,126.8047698
62,지석영어교습소,경기도 부천시 괴안동 236-3번지 강남훼미리타운 1층일부,37.47459724,126.8039372
63,클라라음악교습소,경기도 부천시 괴안동 204-6번지 삼익세라믹아파트 상가동 201호,37.47559547,126.8028266
64,탑산소독서실,경기도 부천시 괴안동 109번지 세코프라자 301호,37.48295873,126.8095229
65,일심보습학원,"경기도 부천시 괴안동 173-3번지 3,4층",37.48240025,126.8096035
66,파고다주니어소사어학원,"경기도 부천시 괴안동 89번지 명성프라자 명성프라자 5층일부(501호,502호)",37.47890046,126.8072157
67,반석종로보습학원,경기도 부천시 괴안동 86-3번지 난곡빌딩 3층,37.47715293,126.8074576
68,예인음악학원,경기도 부천시 괴안동 173-3번지 봉봉빌딩 2층,37.48240025,126.8096035
69,지혜음악학원,경기도 부천시 괴안동 130-9번지 3층,37.48437338,126.8151611
70,명문음악학원,경기도 부천시 괴안동 119-9번지 노블하우스 202호,37.48123645,126.8142419
71,에덴피아노학원,경기도 부천시 괴안동 98-8번지 2층,37.47845606,126.8109364
72,글벗O2(오투)독서실,경기도 부천시 괴안동 28-2번지 기풍빌딩 5층 일부,37.47895739,126.8035412
73,창조미술학원,경기도 부천시 괴안동 182-20번지 덕림빌딩 1층,37.48512753,126.8191844
74,아인스보습학원,경기도 부천시 괴안동 125-5번지 인광빌딩 3층 전부,37.4829561,126.8134574
75,목동이현민수학보습학원,경기도 부천시 괴안동 70-13번지 동구빌딩 3층 일부,37.47923285,126.8066269
76,육영독서실,경기도 부천시 괴안동 126-7번지 부안빌딩 4층,37.48348715,126.8131282
77,역곡이용학원,경기도 부천시 괴안동 128번지 302호,37.48481946,126.8124012
78,해밀에듀수학학원,경기도 부천시 괴안동 107-14번지 우성빌딩 2층,37.48184276,126.8102946
79,공부의신보습학원,경기도 부천시 괴안동 100번지 2층,37.4800692,126.8111584
80,켈스러닝보습학원,경기도 부천시 괴안동 71-3번지 2층,37.47889995,126.8069104
81,으뜸보습학원,"경기도 부천시 괴안동 120-6번지 준영빌딩 3층,4층",37.48070539,126.8145711
82,예일음악학원,경기도 부천시 괴안동 175-13번지,37.48537737,126.8176235
83,문지기하모니카실용음악학원,경기도 부천시 괴안동 109-5번지 조양프라자 4층 전체,37.48334751,126.8103472
84,공부습관잡는보습학원,경기도 부천시 괴안동 118-33번지 대성빌딩 3층,37.48167745,126.8139355
85,웨슬리어학원,"경기도 부천시 괴안동 109번지 SECO프라자 202호,302호일부,502호",37.48295873,126.8095229
86,올뮤직실용음악학원,경기도 부천시 괴안동 109-20번지 2층,37.48267983,126.8097723
87,윤진음악학원,경기도 부천시 괴안동 168번지 2층 일부,37.48521085,126.8148764
88,스키마보습학원,"경기도 부천시 괴안동 28-5번지 2층 일부, 3층 일부",37.47890197,126.8027387
89,영어놀이터보습학원,경기도 부천시 괴안동 98-8번지 2층,37.47845606,126.8109364
90,엠베스트SE(에스이)소사본원보습학원,경기도 부천시 괴안동 30-3번지,37.47695447,126.8019412
91,스카이웰어학원,"경기도 부천시 괴안동 89-1번지 2층일부,3층일부",37.47892781,126.8074078
92,아이린보습학원,경기도 부천시 괴안동 28-3번지 태양빌딩 3층 일부 (서쪽),37.47892957,126.8030778
93,현대간호학원,경기도 부천시 괴안동 127-1번지 창성빌딩 4층 일부,37.4843427,126.8128773
94,예원미술학원,경기도 부천시 괴안동 204-5번지 삼익세라믹 상가 202호,37.47631542,126.8023273
95,탑플러스보습학원,경기도 부천시 괴안동 31-1번지 헌철빌딩 4층,37.47867875,126.8039376
96,이레음악학원,경기도 부천시 괴안동 100-26번지 2층 전체,37.47934832,126.8111037
97,퍼펙트보습학원,"경기도 부천시 괴안동 89번지 명성프라자 401호,402호",37.47890046,126.8072157
98,장학독서실,"경기도 부천시 괴안동 155-8번지 세경프라자 5층 502호일부,503,504호",37.47623442,126.8077653
99,SAM&apos;STOWN(쌤스타운)영수보습학원,경기도 부천시 괴안동 30-3번지 가산빌딩 3층 일부,37.47695447,126.8019412
100,찬양음악학원,경기도 부천시 괴안동 99-41번지 2층,37.48037523,126.8109654
101,예음나라음악학원,경기도 부천시 괴안동 71-1번지 3층,37.47887185,126.8062661
102,건설기술산업건축학원,경기도 부천시 괴안동 28-2번지 기풍빌딩 404호,37.47895739,126.8035412
103,건반사랑음악학원,경기도 부천시 괴안동 99-16번지 1층,37.47893353,126.8109012
104,비욘드잉글리쉬어학원,"경기도 부천시 괴안동 248-1번지 5층 501, 502호",37.48001208,126.8148555
105,엠씨독서실,경기도 부천시 괴안동 28-5번지 정석빌딩 3층 일부,37.47890197,126.8027387
106,영동보습학원,경기도 부천시 괴안동 108-4번지 3층,37.48301532,126.8110717
107,반석소사종로엠보습학원,경기도 부천시 괴안동 86-3번지 난곡빌딩 2층,37.47715293,126.8074576
108,목동본보습학원,경기도 부천시 괴안동 70-14번지 남인빌딩 4층,37.47925947,126.8063781
109,피카소미술학원,경기도 부천시 괴안동 70-13번지 동구빌딩 2층 일부,37.47923285,126.8066269
110,KSEM케이쌤보습학원,경기도 부천시 괴안동 183-12번지 2층,37.48476639,126.8187104
111,정직수학보습학원,경기도 부천시 괴안동 109-20번지 4층,37.48267983,126.8097723
112,현진무용학원,경기도 부천시 괴안동 126-1번지 대원빌딩 6층,37.48384742,126.8130482
113,아트앤하트영아트창작미술교습소,경기도 부천시 괴안동 99-1번지 신일해피트리아파트 105호,37.47951796,126.8101536
114,창의적표현미술교습소,경기도 부천시 내동 349-4번지 2층,37.52172621,126.7874322
115,JMJ(제이엠제이)보습학원,경기도 부천시 내동 32번지 3층,37.51773377,126.7725465
116,홀리스타실용음악학원,경기도 부천시 도당동 130-2번지 성남빌딩 2층,37.51953224,126.7949382
117,창조보습학원,경기도 부천시 도당동 40번지 2층,37.5182905,126.7858246
118,도움미술음악학원,경기도 부천시 도당동 43-2번지 4층,37.51940105,126.7870996
119,홍수학영어보습학원,경기도 부천시 도당동 108-1번지 2층 일부,37.51992394,126.7922675
120,and.sum(앤드썸)보습미술학원,경기도 부천시 도당동 131-2번지 대영빌딩 3층 일부,37.51992867,126.7949371
121,한가람보습학원,경기도 부천시 도당동 67-28번지 4층,37.51731596,126.7899673
122,and.sum(앤드썸)보습미술학원,경기도 부천시 도당동 131-2번지 대영빌딩 3층 일부,37.51992867,126.7949371
123,여월음악학원,경기도 부천시 도당동 131-2번지 대영빌딩 2층 일부,37.51992867,126.7949371
124,위즈덤플러스보습미술학원,"경기도 부천시 도당동 264-9번지 1층,2층",37.50603662,126.7855999
125,EDU.ING(에듀아이엔지)보습음악학원,경기도 부천시 도당동 44-2번지 2층 전체,37.51881555,126.7871804
126,EDU.ING(에듀아이엔지)보습음악학원,경기도 부천시 도당동 44-2번지 2층 전체,37.51881555,126.7871804
127,솔리데오음악학원,경기도 부천시 도당동 265-33번지 2층,37.50584696,126.7853517
128,아르떼음악학원,경기도 부천시 도당동 108-9번지 4층,37.51992346,126.7919961
129,도움미술음악학원,경기도 부천시 도당동 43-2번지 4층,37.51940105,126.7870996
130,쇼팽의아이들음악학원,경기도 부천시 도당동 116-6번지 중앙빌딩 3층 302호,37.52062021,126.7936796
131,여월이프렌드보습학원,경기도 부천시 도당동 131-2번지 대영빌딩 2층 일부,37.51992867,126.7949371
132,상아탑독서실,경기도 부천시 도당동 58-2번지 정남프라자 3층(301호)일부,37.51983777,126.7894398
133,성락속셈학원,경기도 부천시 도당동 266-4번지 성원아파트 2층 201호,37.50620365,126.7833488
134,그림나라미술학원,경기도 부천시 도당동 130-6번지 2층,37.51926194,126.794939
135,민족영재보습어학원,"경기도 부천시 도당동 43-2번지 2층,3층",37.51940105,126.7870996
136,도움미술음악학원,경기도 부천시 도당동 43-2번지 4층,37.51940105,126.7870996
137,애덤앤쌜리영어교습소,경기도 부천시 도당동 247-23번지 1층 일부,37.5072852,126.7787425
138,신흥이화피아노교습소,경기도 부천시 도당동 264-20번지,37.50667582,126.7853266
139,도당e(이)플러스영어교습소,경기도 부천시 도당동 58-7번지 3층,37.51995328,126.7885459
140,도당비젼스터디보습학원,경기도 부천시 도당동 58-2번지 정남프라자 3층 일부,37.51983777,126.7894398
141,상록수음악학원,경기도 부천시 도당동 108-12번지 2층,37.51976186,126.7923246
142,에듀탑보습학원,경기도 부천시 도당동 118-10번지 한영빌딩 가동 2층 전체,37.51928483,126.7925974
143,멘토의힘영수보습학원,경기도 부천시 도당동 108-12번지 3층,37.51976186,126.7923246
144,그림나라보습학원,경기도 부천시 도당동 130-6번지 3층,37.51926194,126.794939
145,새솔보습학원,경기도 부천시 도당동 118-4번지 새솔미술속셈학원 2층,37.51925962,126.7936268
146,캠퍼스보습학원,경기도 부천시 도당동 284-1번지 3층 우측 안영환치과의원,37.50706226,126.7799646
147,상상하이스트보습학원,경기도 부천시 도당동 108-7번지 2층,37.51992309,126.7917925
148,푸르넷아카데미도당보습학원,경기도 부천시 도당동 105-4번지 2층 전체,37.51859069,126.7923844
149,한수보습학원,경기도 부천시 도당동 61-2번지 영진빌딩 4층,37.52028937,126.7900494
150,민족영재보습어학원,"경기도 부천시 도당동 43-2번지 2층,3층",37.51940105,126.7870996
151,대산보습학원,경기도 부천시 도당동 131-1번지 3층,37.51981013,126.7941343
152,유은하음악학원,경기도 부천시 도당동 63-12번지 2층,37.51925493,126.7909912
153,위즈덤플러스보습미술학원,"경기도 부천시 도당동 264-9번지 1층,2층",37.50603662,126.7855999
154,에로이카음악학원,경기도 부천시 도당동 108번지 청오빌딩 301호,37.51992244,126.7914305
155,목화음악학원,경기도 부천시 도당동 108-1번지 4층,37.51992394,126.7922675
156,잉글리쉬무무도당보습학원,경기도 부천시 도당동 62-2번지 2층 일부,37.51983971,126.7905145
157,새아르떼음악학원,"경기도 부천시 범박동 152-2번지 현대홈타운 범박힐스테이트4단지상가동 202호,203호",37.4715401,126.807687
158,김태균수학클리닉김태균엘리트(ELITE)수학범박캠퍼스보습학원,경기도 부천시 범박동 155-2번지 현대리치모아 611호,37.47112897,126.8097116
159,토리의작업실미술학원,경기도 부천시 범박동 151-2번지 203호 및 203-1호,37.46899056,126.8078519
160,메릭스해법수학보습학원,경기도 부천시 범박동 155-2번지 현대리치모아 305호,37.47112897,126.8097116
161,대치동수학입시학원,경기도 부천시 범박동 155-2번지 현대리치모아 5층 502호,37.47112897,126.8097116
162,모짜르트음악학원,경기도 부천시 범박동 35-1번지 신한은행365 4층 401호,37.47120869,126.8088749
163,나은아음악학원,경기도 부천시 범박동 150-2번지 현대홈타운 301동 304호,37.46906842,126.8059074
164,뮤직아이드림범박음악학원,경기도 부천시 범박동 152-2번지 현대홈타운 3층 304호,37.4715401,126.807687
165,샤인어학보습학원,경기도 부천시 범박동 232-4번지 1층 일부,37.46826202,126.8141841
166,샤인어학보습학원,경기도 부천시 범박동 232-4번지 1층 일부,37.46826202,126.8141841
167,치동이네숲독서실,경기도 부천시 범박동 155-2번지 현대리치모아 5층 505호,37.47112897,126.8097116
168,소사대성N(엔)입시학원,경기도 부천시 범박동 155-2번지 현대리치모아 512호,37.47112897,126.8097116
169,EZ(이지)독서논술보습학원,경기도 부천시 범박동 155-2번지 현대리치모아 301호,37.47112897,126.8097116
170,프라임보습학원,경기도 부천시 범박동 4-1번지 승일빌딩 4층,37.47376241,126.8112649
171,쇼팽음악학원,경기도 부천시 범박동 155-1번지 현대홈타운3단지 상가동 302호,37.47254462,126.8103749
172,유레카수학보습학원,경기도 부천시 범박동 44-17번지 401호,37.46940739,126.8092978
173,범박이아이이어학원,경기도 부천시 범박동 44-17번지 5층,37.46940739,126.8092978
174,EK(이케이)어학원,경기도 부천시 범박동 155-2번지 현대리치모아 607호,37.47112897,126.8097116
175,퍼스트넷보습학원,경기도 부천시 범박동 155-2번지 현대리치모아 5층 501호,37.47112897,126.8097116
176,소사대성N(엔)어학원,경기도 부천시 범박동 155-2번지 현대리치모아 506호,37.47112897,126.8097116
177,하연과학보습학원,경기도 부천시 범박동 155-2번지 현대리치모아 304호,37.47112897,126.8097116
178,이보영의토킹클럽범박어학원,경기도 부천시 범박동 155-2번지 현대리치모아 603호,37.47112897,126.8097116
179,성신음악학원,경기도 부천시 범박동 151-2번지 현대홈타운5단지 상가 2층 204호,37.46899056,126.8078519
180,영재바둑교습소,"경기도 부천시 범박동 154-2번지 부천 범박 힐스테이트 1단지 305호 304호,305호",37.47454366,126.8096576
181,생각하는손가락미술교습소,경기도 부천시 범박동 35-1번지 신한은행365 401호 우측 일부,37.47120869,126.8088749
182,조이해법영어교습소,경기도 부천시 범박동 155-1번지 현대홈타운 상가동 301호,37.47254462,126.8103749
183,범박영재들의미술상자미술교습소,경기도 부천시 범박동 155-1번지 부천범박힐스테이트3단지 202호,37.47254462,126.8103749
184,범박해법중국어교습소,경기도 부천시 범박동 155-1번지 부천범박힐스테이트3단지 3층 303호,37.47254462,126.8103749
185,일신e해법수학교습소,경기도 부천시 범박동 152-2번지 현대홈타운 205호 일부,37.4715401,126.807687
186,노랑캔버스미술교습소,경기도 부천시 범박동 154-2번지 부천 범박 힐스테이트 1단지 상가동 204호,37.47454366,126.8096576
187,강해수학교습소,경기도 부천시 범박동 150-2번지 현대홈타운 상가동 302호,37.46906842,126.8059074
188,TED(테드)영어교습소,경기도 부천시 범박동 152-2번지 현대홈타운 205호 일부,37.4715401,126.807687
189,시카고잉글리쉬(CHICAGO ENGLISH)영어교습소,경기도 부천시 범박동 153-2번지 현대홈타운 306호,37.47426125,126.8077704
190,조민호바른영어교습소,"경기도 부천시 범박동 151-2번지 현대홈타운 2층 201,202호",37.46899056,126.8078519
191,태영영어교습소,경기도 부천시 범박동 44-8번지 경원프라자 103호,37.46926392,126.8097164
192,G(지)-2영어교습소,경기도 부천시 범박동 151-2번지 현대홈타운 상가동 3층 301호,37.46899056,126.8078519
193,탑해법영어교습소,경기도 부천시 범박동 152-2번지 현대홈타운4단지 상가 206호 일부,37.4715401,126.807687
194,민아트미술교습소,경기도 부천시 범박동 150-2번지 현대홈타운 현대힐스테이트6단지 상가 303호,37.46906842,126.8059074
195,작가미술교습소,경기도 부천시 범박동 151-2번지 현대홈타운 상가동 303호,37.46899056,126.8078519
196,삼성영어일신영어교습소,경기도 부천시 범박동 152-2번지 현대홈타운 204호,37.4715401,126.807687
197,오름영어교습소,경기도 부천시 범박동 150-2번지 현대홈타운 1층 105호 우측 일부,37.46906842,126.8059074
198,빨간펜수학의달인소사수학교습소,경기도 부천시 범박동 153-2번지 현대홈타운2단지 상가동 201호,37.47426125,126.8077704
199,오름수학교습소,경기도 부천시 범박동 150-2번지 현대홈타운 1층 105호 좌측 일부,37.46906842,126.8059074
200,Q(큐)수학교습소,경기도 부천시 범박동 154-2번지 부천범박힐스테이트1단지 2층 203호,37.47454366,126.8096576
201,예꼴미술교습소,경기도 부천시 범박동 152-2번지 현대홈타운4단지 상가 201호,37.4715401,126.807687
202,요미요미소사미술학원,경기도 부천시 범박동 155-2번지 현대리치모아 415호,37.47112897,126.8097116
203,SAM(에스에이엠)보습학원,경기도 부천시 범박동 32-6번지 범박동근린생활시설 4층,37.47298335,126.8086894
204,범박옥스퍼드어학원,경기도 부천시 범박동 155-2번지 현대리치모아 507호,37.47112897,126.8097116
205,범박뮤즈음악학원,경기도 부천시 범박동 155-2번지 현대리치모아 605-2,37.47112897,126.8097116
206,김승현의Math K(매쓰케이)수학보습학원,경기도 부천시 범박동 155-2번지 현대리치모아 608호,37.47112897,126.8097116
207,이투엠보습학원,경기도 부천시 범박동 154-2번지 부천범박힐스테이트1단지상가동 2층 201~202호,37.47454366,126.8096576
208,정윤능률보습학원,경기도 부천시 범박동 155-2번지 현대리치모아 605-1호,37.47112897,126.8097116
209,소사정상어학원,경기도 부천시 범박동 155-2번지 현대리치모아 503호,37.47112897,126.8097116
210,라이프러리독서실,경기도 부천시 범박동 155-2번지 현대리치모아 604호,37.47112897,126.8097116
211,숲을보는보습학원,경기도 부천시 범박동 153-2번지 현대홈타운 2단지 상가동 301호 302호,37.47426125,126.8077704
212,범박C&C(씨앤씨)미술학원,경기도 부천시 범박동 155-2번지 현대리치모아 602호,37.47112897,126.8097116
213,선진수학보습학원,경기도 부천시 범박동 155-2번지 현대리치모아 613호,37.47112897,126.8097116
214,예당독서실,"경기도 부천시 범박동 155-2번지 현대리치모아 609호,610호",37.47112897,126.8097116
215,챔버오케스트라음악학원,경기도 부천시 범박동 155-2번지 현대리치모아 5층 509호,37.47112897,126.8097116
216,EJ&apos;s(이제이스)음악학원,"경기도 부천시 범박동 154-2번지 상가동 306, 307호",37.47454366,126.8096576
217,생각키움보습학원,경기도 부천시 범박동 155-2번지 현대리치모아 3층 307호,37.47112897,126.8097116
218,하라음악학원,경기도 부천시 범박동 151-2번지 현대홈타운5단지 상가 3층 304호,37.46899056,126.8078519
219,공감국어와논술보습학원,경기도 부천시 범박동 32-6번지 범박동근린생활시설 5층,37.47298335,126.8086894
220,브니엘음악학원,경기도 부천시 범박동 155-2번지 현대리치모아 4층 402호,37.47112897,126.8097116
221,"봄,미술학원",경기도 부천시 범박동 155-2번지 현대리치모아 504-2호,37.47112897,126.8097116
222,대치동수학투혼관입시학원,경기도 부천시 범박동 155-2번지 현대리치모아 508호,37.47112897,126.8097116
223,BigApple(빅애플)영어보습학원,경기도 부천시 범박동 155-2번지 현대리치모아 513호,37.47112897,126.8097116
224,범박한솔플러스수학보습학원,경기도 부천시 범박동 155-2번지 현대리치모아 5층 504-1호,37.47112897,126.8097116
225,풀향기산소독서실,경기도 부천시 삼정동 342-3번지 4층,37.51483778,126.7705986
226,New(뉴)한림보습학원,경기도 부천시 삼정동 295-16번지 2층 일부,37.51820574,126.7697172
227,부천해법중국어보습학원,경기도 부천시 삼정동 308번지 2층 일부,37.51717075,126.7702973
228,연세피아노학원,경기도 부천시 삼정동 296-12번지,37.51848466,126.769524
229,삼정보습학원,경기도 부천시 삼정동 294-5번지 2층 전체,37.5168715,126.7693254
230,형상미술학원,경기도 부천시 삼정동 296-13번지 3층 일부,37.51851212,126.7697389
231,EMI(이엠아이)보습학원,경기도 부천시 삼정동 296-13번지 3층 일부,37.51851212,126.7697389
232,PLAN A플랜에이입시학원,경기도 부천시 상동 535-1번지 뱅뱅플라자 802호,37.5072624,126.7538609
233,임병희음악학원,경기도 부천시 상동 392번지 한아름상가 207~208호,37.495009,126.749661
234,더영수보습학원,경기도 부천시 상동 533-3번지 아트프라자 6층 601호 일부,37.5076517,126.7505005
235,연곡서예한문학원,경기도 부천시 상동 535-3번지 썬프라자 504호,37.50690193,126.7538281
236,SKY(스카이)뷰독서실,경기도 부천시 상동 544-6번지 센타프라자 8층 802,37.50451114,126.7523319
237,아르케보습학원,경기도 부천시 상동 537-1번지 크라운빌딩 601호,37.50697921,126.7563047
238,예현음악학원,경기도 부천시 상동 544-11번지 새롬프라자 504호,37.50367292,126.7521877
239,이튼키즈영어보습학원,경기도 부천시 상동 523-8번지 에이스프라자 502호 일부,37.51259337,126.7524972
240,Kids Play English(키즈플레이잉글리시)보습학원,경기도 부천시 상동 546-10번지 월드프라자 4층 401호,37.50373464,126.7515542
241,브레인사고력보습학원,경기도 부천시 상동 535-4번지 다인타운 7층 701호,37.50670367,126.7538062
242,코드원독서실,경기도 부천시 상동 544-10번지 한빛프라자 8층 803호,37.50395234,126.7522433
243,EM(이엠)대한입시학원,경기도 부천시 상동 544-11번지 새롬프라자15차 5층 508호,37.50367292,126.7521877
244,회화공감미술학원,경기도 부천시 상동 534-5번지 현해프라자 4층 403호,37.5065933,126.7527434
245,삼성영어반달마을보습학원,"경기도 부천시 상동 395번지 2층 203호, 3층 303호",37.49337612,126.7529119
246,폭스영어전문입시학원,경기도 부천시 상동 535-3번지 썬프라자 702호,37.50690193,126.7538281
247,와이즈리더영어보습학원,경기도 부천시 상동 535-1번지 뱅뱅프라자 406호,37.5072624,126.7538609
248,사계국어입시학원,경기도 부천시 상동 534-1번지 승재 프라자 604호 일부,37.50739566,126.7529669
249,상동정상어학원,"경기도 부천시 상동 535-3번지 5층 502호, 6층 604호, 605호",37.50690193,126.7538281
250,아크로보습학원,경기도 부천시 상동 328-11번지 화경빌딩 2층,37.48812068,126.7647113
251,G1230고등부입시외국어학원,"경기도 부천시 상동 535-1번지 뱅뱅프라자 505, 506, 507, 508호",37.5072624,126.7538609
252,유플러스보습학원,경기도 부천시 상동 533-10번지 토성프라자텔 405호,37.50748381,126.7520505
253,Angel&Music(앤젤앤뮤직)음악학원,경기도 부천시 상동 415번지 사랑마을 상가 3층 301호 일부,37.49584612,126.7578227
254,에이펙스정보처리기술융합학원,경기도 부천시 상동 533-11번지 부건프라자 602호 일부,37.50743028,126.7522995
255,JustOne(저스트원)영수보습학원,경기도 부천시 상동 226-1번지 3층 일부,37.49284323,126.7609421
256,보스톤캠퍼스어학원,경기도 부천시 상동 520-12번지 광서유치원 4층 401호,37.5133674,126.75211
257,써니스쿨어학원,경기도 부천시 상동 538-1번지 효성프라자 308호,37.50678433,126.7579114
258,라온보습학원,경기도 부천시 상동 536-2번지 월드컵타운 305호,37.50717415,126.7547433
259,파워서포트미용학원,경기도 부천시 상동 544-3번지 해피플러스 205호,37.50514991,126.7518887
260,수학상승곡선입시학원,경기도 부천시 상동 535-1번지 뱅뱅프라자 8층 805호,37.5072624,126.7538609
261,프라임영어수학보습학원,경기도 부천시 상동 536-1번지 보람프라자 703호,37.50720066,126.7544944
262,서민기영수보습학원,경기도 부천시 상동 328-12번지 301호,37.48809406,126.7649149
263,훈민정필글씨교정학원,경기도 부천시 상동 535-3번지 썬프라자 503호,37.50690193,126.7538281
264,Fire English(파이어 잉글리쉬)보습학원,경기도 부천시 상동 535-3번지 썬프라자 801호 일부,37.50690193,126.7538281
265,매쓰아이콘수학전문보습학원,경기도 부천시 상동 544-11번지 15차 507호,37.50367292,126.7521877
266,잉글리쉬무무상동제2보습학원,경기도 부천시 상동 397번지 303호,37.4926762,126.7500195
267,제임스보습어학원,경기도 부천시 상동 546-8번지 그린프라자 5층 일부,37.5038146,126.7510224
268,아이제이영어보습학원,경기도 부천시 상동 226-4번지 동호빌딩 4층,37.49223015,126.7607406
269,박은영음악학원,경기도 부천시 상동 546-10번지 월드프라자 503호,37.50373464,126.7515542
270,쵸이베스트어학원,경기도 부천시 상동 544-11번지 새롬프라자 308호,37.50367292,126.7521877
271,댄스플레이어댄스학원,경기도 부천시 상동 541-1번지 메가플러스빌딩 3층 315호,37.50506361,126.7536872
272,안&카어학보습학원,경기도 부천시 상동 534-1번지 승재프라자 802호,37.50739566,126.7529669
273,예솔뮤직아카데미학원,경기도 부천시 상동 550-7번지 행복한마을 상가동 2층,37.50175575,126.7488806
274,상동강타수학보습학원,경기도 부천시 상동 533-8번지 대림타운 607호,37.50753681,126.7515527
275,상동플러스보습학원,경기도 부천시 상동 597-9번지 1층,37.49317545,126.7434141
276,상동스터디뱅크독서실,경기도 부천시 상동 534-3번지 상동프라자 411호,37.50692698,126.7528893
277,임과학보습학원,경기도 부천시 상동 536-2번지 월드컵타운 702호,37.50717415,126.7547433
278,독서토론공간수다논술보습학원,경기도 부천시 상동 546-4번지 금호프라자 605호,37.50392989,126.7501625
279,핑크엠실용음악연기학원,"경기도 부천시 상동 544-4번지 가나베스트타운 505호, 506호",37.50512386,126.7523525
280,영어의해답보습학원,경기도 부천시 상동 546-10번지 월드프라자 5층 505호,37.50373464,126.7515542
281,여기우리가공부하는보습학원,경기도 부천시 상동 401번지 세원빌딩 601호 일부,37.49120455,126.7528287
282,최강영어보습학원,경기도 부천시 상동 546-4번지 금호프라자 504호,37.50392989,126.7501625
283,삼일보습학원,경기도 부천시 상동 534-1번지 승재프라자 507호,37.50739566,126.7529669
284,공감수학보습학원,경기도 부천시 상동 546-10번지 월드프라자 405호,37.50373464,126.7515542
285,math(매스)153보습학원,경기도 부천시 상동 537-1번지 크라운빌딩 6층 603호 일부,37.50697921,126.7563047
286,수길독서실,경기도 부천시 상동 546-10번지 월드프라자 801호 일부,37.50373464,126.7515542
287,코어독학대세입시학원,"경기도 부천시 상동 536-2번지 월드컵타운 701호, 705호",37.50717415,126.7547433
288,황도기수학보습학원,경기도 부천시 상동 546-10번지 월드프라자 304호,37.50373464,126.7515542
289,이든배움보습학원,경기도 부천시 상동 544-11번지 새롬프라자15차 703호,37.50367292,126.7521877
290,드림실용음악학원,경기도 부천시 상동 546-6번지 서해프라자 708호,37.50386764,126.7505472
291,글벗국어논술보습학원,경기도 부천시 상동 546-8번지 그린프라자 4층 402호,37.5038146,126.7510224
292,리딩웨일영어보습학원,경기도 부천시 상동 523-10번지 성은빌딩 5층,37.51256723,126.7529158
293,빅실용음악학원,"경기도 부천시 상동 541-1번지 메가플러스 417,418호",37.50506361,126.7536872
294,항상보습학원,경기도 부천시 상동 544-9번지 수석프라자 501호,37.50417771,126.7522991
295,열정과신념보습학원,경기도 부천시 상동 544-11번지 새롬프라자 501호,37.50367292,126.7521877
296,성산음악학원,경기도 부천시 상동 533-5번지 신주프라자 501호,37.50758957,126.7509418
297,중등수학의길수학보습학원,경기도 부천시 상동 546-10번지 월드 프라자 801호 일부,37.50373464,126.7515542
298,영아티스트실용음악학원,"경기도 부천시 상동 535-1번지 뱅뱅프라자 407호, 408호 일부",37.5072624,126.7538609
299,매스원보습학원,경기도 부천시 상동 533-8번지 대림타운 601호,37.50753681,126.7515527
300,상동리딩뱅크독서실,경기도 부천시 상동 401번지 세원빌딩 5층 501호,37.49120455,126.7528287
301,부천메가스터디학원,"경기도 부천시 상동 546-9번지 청죽타워 1층 일부, 2층, 3층",37.5037881,126.7512713
302,누네아르미용학원,경기도 부천시 상동 534-5번지 현해프라자 501호 일부,37.5065933,126.7527434
303,플랜(PLAN)독서실,경기도 부천시 상동 535-1번지 뱅뱅프라자 410호,37.5072624,126.7538609
304,에이블트리스피치화술학원,경기도 부천시 상동 544-10번지 한빛프라자 503호,37.50395234,126.7522433
305,비전어학원,경기도 부천시 상동 536-2번지 월드컵타운 6층 605호,37.50717415,126.7547433
306,부천보습학원,경기도 부천시 상동 316-17번지 2층 일부,37.48912704,126.7633512
307,맥영어수학보습학원,경기도 부천시 상동 400번지 다모아빌딩 302호,37.49123788,126.7515508
308,미래로봇학원,경기도 부천시 상동 534-3번지 상동프라자 509호,37.50692698,126.7528893
309,Music Note(뮤직노트)음악학원,경기도 부천시 상동 400번지 중동다모아쇼핑타운 402호,37.49123788,126.7515508
310,올풀수학보습학원,경기도 부천시 상동 537-2번지 아름다운프라자 5층 502호,37.50695274,126.7565763
311,이재식국어입시학원,경기도 부천시 상동 534-1번지 705~708호,37.50739566,126.7529669
312,F(에프)4정보처리컴퓨터학원,경기도 부천시 상동 326번지 3층 일부,37.48812667,126.7632187
313,핵강수학입시학원,경기도 부천시 상동 544-10번지 한빛프라자 706호,37.50395234,126.7522433
314,엠(M)보습학원,경기도 부천시 상동 537-1번지 크라운빌딩 501호,37.50697921,126.7563047
315,샐리랭귀지스쿨어학보습학원,"경기도 부천시 상동 546-10번지 월드 프라자 701호 일부, 702호",37.50373464,126.7515542
316,청심어학원,경기도 부천시 상동 557-1번지 4층,37.50095451,126.7534068
317,그림아일랜드미술학원,경기도 부천시 상동 546-2번지 두성프라자 401호,37.50398281,126.7496307
318,티엠영수전문보습학원,경기도 부천시 상동 535-1번지 뱅뱅프라자 401호,37.5072624,126.7538609
319,하나컴퓨터디자인학원,"경기도 부천시 상동 535-1번지 뱅뱅프라자 705,706호",37.5072624,126.7538609
320,송내간호학원,경기도 부천시 상동 464번지 루치올라빌딩 3층 302호,37.48825773,126.7525558
321,고수의수학보습학원,경기도 부천시 상동 546-6번지 서해프라자 407호,37.50386764,126.7505472
322,상동애니스타만화학원,경기도 부천시 상동 534-3번지 상동프라자 5층 505호,37.50692698,126.7528893
323,송내비젼실용음악학원,"경기도 부천시 상동 401번지 세원빌딩 502,503,504호",37.49120455,126.7528287
324,아주특별한단과보습학원,경기도 부천시 상동 544-9번지 부천상동수석프라자 606호,37.50417771,126.7522991
325,폴리어학원,경기도 부천시 상동 535-8번지 센타프라자 501호,37.50622829,126.7548256
326,린강음악학원,경기도 부천시 상동 403번지 서진프라자 3층 302호 일부,37.49084469,126.7530786
327,싸이언스피플과학보습학원,경기도 부천시 상동 544-10번지 한빛프라자 502호,37.50395234,126.7522433
328,인트로만화학원,경기도 부천시 상동 534-3번지 상동프라자 609호,37.50692698,126.7528893
329,늘찬국어논술보습학원,경기도 부천시 상동 535-4번지 다인타운 902호 일부,37.50670367,126.7538062
330,라온영재음악학원,경기도 부천시 상동 395번지 반달마을 308호,37.49337612,126.7529119
331,칼마수학입시학원,경기도 부천시 상동 534-1번지 승재프라자 804호,37.50739566,126.7529669
332,왓슬영어보습학원,경기도 부천시 상동 534-1번지 승재프라자 607호,37.50739566,126.7529669
333,챕터원커피바리스타학원,경기도 부천시 상동 535-4번지 다인타운 6층 604호,37.50670367,126.7538062
334,부천특수용접학원,경기도 부천시 상동 407-2번지 반달빌딩 7층 701호,37.49042752,126.7518023
335,후니뮤직음악학원,"경기도 부천시 상동 538-1번지 효성프라자 303호,304호",37.50678433,126.7579114
336,스터디랩독서실,경기도 부천시 상동 546-4번지 204~205호,37.50392989,126.7501625
337,팰리스O2(오투)독서실,경기도 부천시 상동 328-11번지 동영빌딩 5층 전체,37.48812068,126.7647113
338,상동기성쌤수학보습학원,경기도 부천시 상동 536-2번지 월드컵타운 503호 일부,37.50717415,126.7547433
339,April(에이프릴)어학원,경기도 부천시 상동 536-1번지 보람프라자 4층,37.50720066,126.7544944
340,튼튼영어마스터클럽상동상일보습학원,경기도 부천시 상동 544-11번지 새롬프라자15차 306호,37.50367292,126.7521877
341,수학의길수학보습학원,경기도 부천시 상동 546-10번지 월드 프라자 801호 일부,37.50373464,126.7515542
342,코모리치미용학원,경기도 부천시 상동 544-3번지 해피플러스 405호,37.50514991,126.7518887
343,다가온수학보습학원,"경기도 부천시 상동 546-6번지 서해프라자 3층 308호, 310호",37.50386764,126.7505472
344,한국바리스타학원,"경기도 부천시 상동 537-5번지 6층 601호 일부, 602호",37.50684613,126.7573004
345,윤선생영어숲어학원,"경기도 부천시 상동 546-10번지 월드프라자 402호, 403호",37.50373464,126.7515542
346,수학공장보습학원,경기도 부천시 상동 535-1번지 뱅뱅프라자 5층 501호,37.5072624,126.7538609
347,퍼펙트어학원,경기도 부천시 상동 535-1번지 뱅뱅프라자 504호,37.5072624,126.7538609
348,씽씽오감키즈미술학원,경기도 부천시 상동 400번지 중동다모아쇼핑타운 407호,37.49123788,126.7515508
349,수대학입시컨설팅학원,경기도 부천시 상동 537-2번지 아름다운프라자 302호,37.50695274,126.7565763
350,블럭챔프블럭학원,경기도 부천시 상동 535-1번지 뱅뱅프라자 402호,37.5072624,126.7538609
351,하얀나라독서실,경기도 부천시 상동 557-4번지 늘푸른 종합상가 305호,37.50059423,126.7534646
352,키아트(Kyart)영어보습학원,경기도 부천시 상동 537-1번지 크라운빌딩 602호,37.50697921,126.7563047
353,터닝포인트입시학원,경기도 부천시 상동 546-8번지 그린프라자 5층 일부,37.5038146,126.7510224
354,비원오길보습학원,경기도 부천시 상동 544-10번지 한빛프라자,37.50395234,126.7522433
355,댄스박스댄스스포츠학원,경기도 부천시 상동 456번지 일번지프라자 2층 202~203호,37.48975911,126.7552758
356,온수학글마루국어보습학원,경기도 부천시 상동 544-11번지 새롬프라자 8층 805호,37.50367292,126.7521877
357,다가온수학중등관보습학원,경기도 부천시 상동 546-4번지 금호프라자 506호,37.50392989,126.7501625
358,고수보습학원,경기도 부천시 상동 537-2번지 아름다운프라자 3층 301호,37.50695274,126.7565763
359,수오재보습학원,경기도 부천시 상동 535-1번지 뱅뱅프라자 503호,37.5072624,126.7538609
360,중앙에이플러스(A+)보습학원,경기도 부천시 상동 533-7번지 진성프라자 2층 202호,37.50756331,126.7513038
361,일대이보습학원,"경기도 부천시 상동 537-1번지 크라운빌딩 701호, 702호",37.50697921,126.7563047
362,Ubox(유박스)상동본점독서실,경기도 부천시 상동 537-5번지 예성프라자 5층 501호 일부,37.50684613,126.7573004
363,서일영어보습학원,경기도 부천시 상동 557-4번지 늘푸른 종합상가 503호 일부,37.50059423,126.7534646
364,예가영어보습학원,경기도 부천시 상동 523-3번지 대동프라자 203호,37.51272662,126.7516032
365,리틀아메리카어학원,경기도 부천시 상동 535-1번지 뱅뱅프라자 701호 일부,37.5072624,126.7538609
366,굿프렌드부동산경매학원,경기도 부천시 상동 541-1번지 메가플러스 414호 일부,37.50506361,126.7536872
367,지성독서실,경기도 부천시 상동 408-4번지 우신프라자 205호 일부,37.48967906,126.7514995
368,올림피아드보습학원,경기도 부천시 상동 534-1번지 승재프라자 201호,37.50739566,126.7529669
369,오늘미술학원,경기도 부천시 상동 544-4번지 가나베스트타운쓰리 604호,37.50512386,126.7523525
370,강남스카이보습학원,경기도 부천시 상동 534-1번지 승재프라자 509호,37.50739566,126.7529669
371,청솔입시학원,"경기도 부천시 상동 453-2번지 우신빌딩 5층, 6층 전체",37.49029062,126.7552402
372,청담표현어학원,"경기도 부천시 상동 536-1번지 보람프라자 701호,702호",37.50720066,126.7544944
373,J.C(제이씨)영어보습학원,경기도 부천시 상동 533-3번지 아트프라자 608호,37.5076517,126.7505005
374,푸른이화음악학원,경기도 부천시 상동 551-1번지 창보 상가 203호,37.50262211,126.7537745
375,스마트보습학원,경기도 부천시 상동 557-4번지 늘푸른 종합상가 4층 404호 일부,37.50059423,126.7534646
376,엠베스트SE(에스이)상2동보습학원,경기도 부천시 상동 544-10번지 한빛프라자 704호,37.50395234,126.7522433
377,김대기4%(퍼센트)국어입시학원,경기도 부천시 상동 535-4번지 다인타운 6층 603호,37.50670367,126.7538062
378,ILEC(아일렉)영어보습학원,경기도 부천시 상동 546-4번지 금호프라자 201호,37.50392989,126.7501625
379,KBA(케이비에이)일등보습학원,경기도 부천시 상동 318번지 우성빌딩 2층,37.48876401,126.7620521
380,와와학습코칭상동보습학원,경기도 부천시 상동 533-8번지 대림타운 5층 505호,37.50753681,126.7515527
381,T&S(티앤에스)수학보습학원,경기도 부천시 상동 534-1번지 승재프라자 5층 508호,37.50739566,126.7529669
382,은영음악학원,경기도 부천시 상동 527-1번지 진달래마을 204호,37.50831883,126.7549431
383,핑크엠실용음악연기학원,"경기도 부천시 상동 544-4번지 가나베스트타운 505호, 506호",37.50512386,126.7523525
384,성균관스터디독서실,"경기도 부천시 상동 546-3번지 8층 801호 일부, 802호 일부",37.50395639,126.7499136
385,클릭전원미술학원,"경기도 부천시 상동 534-6번지 비잔티움 상동 503호, 506호, 507호, 511호, 512호, 522호",37.50625934,126.7524618
386,아이돌음악댄스학원,경기도 부천시 상동 535-4번지 다인타운 6층 601호,37.50670367,126.7538062
387,프라임로봇학원,경기도 부천시 상동 548-7번지 WITHUSVILL 206호,37.50522755,126.7502712
388,대성소마보습학원,경기도 부천시 상동 535-4번지 다인타운 702호,37.50670367,126.7538062
389,눈높이러닝센터다정한보습학원,경기도 부천시 상동 523-3번지 대동프라자 204호,37.51272662,126.7516032
390,정치석댄스스포츠학원,경기도 부천시 상동 538-7번지 다승프라자 301호,37.50606919,126.7562964
391,아이돌음악댄스학원,경기도 부천시 상동 535-4번지 다인타운 6층 601호,37.50670367,126.7538062
392,바탕소창작소미술학원,"경기도 부천시 상동 534-1번지 승재 프라자 602호 일부, 603호",37.50739566,126.7529669
393,멘토보습학원,경기도 부천시 상동 533-11번지 부건프라자 502호,37.50743028,126.7522995
394,비원(Be-one)보습학원,경기도 부천시 상동 544-11번지 15차 새롬프라자 802호,37.50367292,126.7521877
395,에이블영어보습학원,경기도 부천시 상동 546-1번지 태영메디칼 406호,37.50403629,126.7493591
396,맨하탄음악학원,경기도 부천시 상동 544-10번지 한빛프라자 302호 일부,37.50395234,126.7522433
397,썬실용음악학원,경기도 부천시 상동 459-1번지 테마프라자 601호,37.48937393,126.7563513
398,G1230학원,경기도 부천시 상동 535-1번지 뱅뱅프라자 6층,37.5072624,126.7538609
399,강남대치입시학원,"경기도 부천시 상동 546-6번지 605호, 606호 일부, 607호 일부",37.50386764,126.7505472
400,크라스플러스독서실,"경기도 부천시 상동 535-1번지 뱅뱅프라자 803호, 804호",37.5072624,126.7538609
401,상동국풍2000입시학원,경기도 부천시 상동 544-11번지 새롬프라자15차 506호,37.50367292,126.7521877
402,린강미술학원,경기도 부천시 상동 403번지 서진프라자 3층 302호 일부,37.49084469,126.7530786
403,경기콘서바토리음악학원,경기도 부천시 상동 534-1번지 승재프라자 608호,37.50739566,126.7529669
404,매스원(MATHONE)수학보습학원,"경기도 부천시 상동 533-8번지 대림타운 808호, 809호",37.50753681,126.7515527
405,라온발레스튜디오무용학원,경기도 부천시 상동 544-9번지 부천상동수석프라자 601호 일부,37.50417771,126.7522991
406,상동C&C(씨앤씨)미술학원,경기도 부천시 상동 534-3번지 상동프라자 508호,37.50692698,126.7528893
407,따뜻한언어보습학원,경기도 부천시 상동 535-3번지 썬프라자 501호,37.50690193,126.7538281
408,옵티마+(플러스)독서실,경기도 부천시 상동 536-1번지 보람프라자 8층 전체,37.50720066,126.7544944
409,뿌리깊은입시학원,경기도 부천시 상동 535-3번지 썬프라자 801호 일부,37.50690193,126.7538281
410,백&방보습학원,"경기도 부천시 상동 534-1번지 승재프라자 702호 일부,703~704호 전체",37.50739566,126.7529669
411,뉴골든벨독서실,경기도 부천시 상동 585-6번지 명성빌딩 4층,37.4942296,126.7434104
412,WIN(윈)독서실,경기도 부천시 상동 326-15번지 신원빌딩 6층,37.48809118,126.7634902
413,ECC외국어학원,경기도 부천시 상동 536-2번지 월드컵타운 4층 일부,37.50717415,126.7547433
414,예다움음악학원,"경기도 부천시 상동 500-5번지 다정한마을 상가 203,204호",37.51270452,126.7582426
415,그림이좋은사람들미술학원,경기도 부천시 상동 534-5번지 현해프라자 203호,37.5065933,126.7527434
416,수기보습학원,경기도 부천시 상동 533-11번지 부건프라자 5층 503호,37.50743028,126.7522995
417,G1230고등부입시외국어학원,"경기도 부천시 상동 535-1번지 뱅뱅프라자 505, 506, 507, 508호",37.5072624,126.7538609
418,상미음악미술학원,경기도 부천시 상동 585-6번지 명성빌딩 2층,37.4942296,126.7434104
419,더루이존어학원,경기도 부천시 상동 534-3번지 상동프라자 4층 407호,37.50692698,126.7528893
420,아이돌음악댄스학원,경기도 부천시 상동 535-4번지 다인타운 6층 601호,37.50670367,126.7538062
421,헤럴드앤아이이(NIE)상동2어학원,경기도 부천시 상동 573-8번지 2층 전체,37.49695164,126.7438873
422,핑크엠댄스학원,"경기도 부천시 상동 544-4번지 가나베스트타운3 3층 303호, 314호",37.50512386,126.7523525
423,스터디킹덤독서실,"경기도 부천시 상동 400-3번지 505,506호",37.49120367,126.7524103
424,이팝영수보습학원,경기도 부천시 상동 559-3번지 세종프라자 402호,37.50031897,126.755388
425,JIN(진)실용음악학원,경기도 부천시 상동 399번지 306호,37.4900638,126.7502431
426,상동EM(이엠)영수보습학원,경기도 부천시 상동 235번지 중원빌딩 2층 일부,37.49272996,126.7628309
427,괴물수학마녀영어보습학원,경기도 부천시 상동 535-1번지 뱅뱅프라자 405호,37.5072624,126.7538609
428,부천종로입시학원,경기도 부천시 상동 538-4번지 그린힐 902~903호,37.5060089,126.7576312
429,에프엑스보습학원,경기도 부천시 상동 534-1번지 승재프라자 709호,37.50739566,126.7529669
430,에듀윌행정고시학원,"경기도 부천시 상동 544-6번지 센타프라자 801호, 803호",37.50451114,126.7523319
431,부천애니스타만화학원,"경기도 부천시 상동 534-3번지 506호, 507호",37.50692698,126.7528893
432,한국에듀보습학원,"경기도 부천시 상동 535-3번지 썬프라자 505호 일부, 506호",37.50690193,126.7538281
433,노태한수학보습학원,경기도 부천시 상동 536-2번지 월드컵타운 304호,37.50717415,126.7547433
434,서연보습학원,경기도 부천시 상동 395번지 반달마을 상가동 305호~307호,37.49337612,126.7529119
435,부천청솔입시학원,경기도 부천시 상동 453-1번지 1층~6층,37.49045292,126.7552962
436,굿옥션부동산경매학원,경기도 부천시 상동 402-1번지 상동아크로텔 214호,37.49087284,126.75361
437,상동DPA(디피에이)보습학원,경기도 부천시 상동 533-8번지 대림타운 608호,37.50753681,126.7515527
438,리미트수학보습학원,경기도 부천시 상동 400-2번지 두원프라자 208호,37.49123012,126.7521388
439,박학천지혜의숲국어논술보습학원,경기도 부천시 상동 533-8번지 대림타운 604호,37.50753681,126.7515527
440,올림이스턴보습학원,경기도 부천시 상동 397번지 304호,37.4926762,126.7500195
441,부천Matrix(매트릭스)보습학원,경기도 부천시 상동 546-6번지 서해프라자 311호,37.50386764,126.7505472
442,부천석세스스피치화술학원,경기도 부천시 상동 412번지 금강리빙스텔 405호,37.49004338,126.7533527
443,리딩뱅크독서실,경기도 부천시 상동 328-10번지 경촌빌딩 4층 일부,37.48787742,126.7647121
444,한림한국사사탐입시학원,경기도 부천시 상동 546-4번지 금호프라자 6층 606호,37.50392989,126.7501625
445,임프라수학입시학원,경기도 부천시 상동 536-2번지 월드컵타운 604호,37.50717415,126.7547433
446,미술로생각하기상동미술학원,경기도 부천시 상동 559-4번지 서울프라자 302호,37.50034557,126.7551844
447,DANCE BY MELODY(댄스바이멜로디)댄스학원,경기도 부천시 상동 534-3번지 상동프라자 705호,37.50692698,126.7528893
448,부천탑애견미용학원,경기도 부천시 상동 548-6번지 강산타운 202호,37.5052896,126.749796
449,뚜레본요리제과제빵바리스타학원,경기도 부천시 상동 403번지 서진프라자 501~503호,37.49084469,126.7530786
450,아인스오투(O2)독서실,경기도 부천시 상동 523-10번지 성은빌딩 3~4층 전체,37.51256723,126.7529158
451,미르영어보습학원,경기도 부천시 상동 534-1번지 승재프라자 4층 408호,37.50739566,126.7529669
452,부천에이스애견미용학원,"경기도 부천시 상동 412번지 2층 204호, 205호",37.49004338,126.7533527
453,작심독서실,경기도 부천시 상동 546-9번지 청죽타워빌딩 502호,37.5037881,126.7512713
454,비더스카이보습학원,"경기도 부천시 상동 537-2번지 아름다운프라자 601호,602호",37.50695274,126.7565763
455,플러스하이탑보습학원,경기도 부천시 상동 544-11번지 새롬프라자 804호 일부,37.50367292,126.7521877
456,생각유희입시학원,경기도 부천시 상동 546-4번지 금호프라자 301호 일부,37.50392989,126.7501625
457,임팩트7영어학원,경기도 부천시 상동 546-6번지 704~707호,37.50386764,126.7505472
458,최강영수보습학원,"경기도 부천시 상동 407-1번지 대양훼미리코아 501호, 502호",37.49042692,126.7515196
459,PlanA(플랜에이)상동센터독서실,"경기도 부천시 상동 546-8번지 8층 801호 일부, 802호 일부",37.5038146,126.7510224
460,상1동캠퍼스지앤비어학원,경기도 부천시 상동 400-2번지 투원21빌딩 3층 305호,37.49123012,126.7521388
461,이엠코플러스보습학원,"경기도 부천시 상동 415번지 3층 301호 일부, 302호",37.49584612,126.7578227
462,하나컴퓨터디자인학원,"경기도 부천시 상동 535-1번지 뱅뱅프라자 705,706호",37.5072624,126.7538609
463,제스트에듀보습학원,"경기도 부천시 상동 535-1번지 뱅뱅프라자 8층 806호, 807호",37.5072624,126.7538609
464,올바른수학보습학원,경기도 부천시 상동 544-11번지 새롬프라자15차 5층 503호,37.50367292,126.7521877
465,씨아이티수학보습학원,경기도 부천시 상동 542-6번지 굿닥터스빌딩 2층 203호,37.50339627,126.753444
466,시매쓰수학보습학원,경기도 부천시 상동 536-4번지 한솔프라자 5층 504호,37.50709406,126.7552186
467,새미준보습학원,경기도 부천시 상동 546-8번지 그린프라자 601호,37.5038146,126.7510224
468,유비스카이입시학원,"경기도 부천시 상동 534-1번지 승재 프라자 601호일부, 602호 일부",37.50739566,126.7529669
469,텝스독서실,경기도 부천시 상동 445번지 꿈동산유치원 2층,37.49301545,126.7570743
470,그린램프라이브러리상동캠퍼스독서실,경기도 부천시 상동 536-4번지 한솔프라자 7층 702호 일부,37.50709406,126.7552186
471,제임스보습어학원,경기도 부천시 상동 546-8번지 그린프라자 5층 일부,37.5038146,126.7510224
472,매티스수학보습학원,경기도 부천시 상동 534-1번지 승재프라자 502호 일부,37.50739566,126.7529669
473,백경국어입시학원,경기도 부천시 상동 544-11번지 새롬프라자 402호,37.50367292,126.7521877
474,아람입시학원,"경기도 부천시 상동 544-11번지 704,705호",37.50367292,126.7521877
475,King&apos;s Tutor(킹스튜터)어학원,경기도 부천시 상동 542-6번지 메디위즈 202호,37.50339627,126.753444
476,유레카한수위입시학원,경기도 부천시 상동 544-4번지 가나베스트타운 7층 701호,37.50512386,126.7523525
477,상동칼마수학보습학원,경기도 부천시 상동 546-10번지 월드프라자 504호,37.50373464,126.7515542
478,강안수학보습학원,경기도 부천시 상동 533-8번지 대림타운 605호,37.50753681,126.7515527
479,알곡보습학원,경기도 부천시 상동 408-4번지 우신프라자 603호,37.48967906,126.7514995
480,상동최상위보습학원,경기도 부천시 상동 535-4번지 다인타운 602호,37.50670367,126.7538062
481,씨앤에이보습학원,경기도 부천시 상동 536-1번지 보람프라자 302호,37.50720066,126.7544944
482,상미음악미술학원,경기도 부천시 상동 585-6번지 명성빌딩 2층,37.4942296,126.7434104
483,DAVID(데이비드)융합어학원,경기도 부천시 상동 537-1번지 크라운빌딩 7층 703호 일부,37.50697921,126.7563047
484,창의가지입시어학원,경기도 부천시 상동 544-4번지 가나베스트타운쓰리 703호,37.50512386,126.7523525
485,하늘1인독서실,"경기도 부천시 상동 533-5번지 신주프라자 502,503,504호",37.50758957,126.7509418
486,영아티스트뮤직아카데미음악학원,경기도 부천시 상동 535-1번지 뱅뱅프라자 702호 일부,37.5072624,126.7538609
487,라온수학과학보습학원,경기도 부천시 상동 533-8번지 대림타운 5층 502호,37.50753681,126.7515527
488,정율사관입시학원,"경기도 부천시 상동 534-6번지 비잔티움 상동 401호, 408호 ~ 410호",37.50625934,126.7524618
489,창의가지입시어학원,경기도 부천시 상동 544-4번지 가나베스트타운쓰리 703호,37.50512386,126.7523525
490,미래키움보습학원,"경기도 부천시 상동 544-11번지 새롬프라자(15차) 602호 601호,602호",37.50367292,126.7521877
491,진수어학원,경기도 부천시 상동 401번지 세원빌딩 404호,37.49120455,126.7528287
492,이지스터디경매학원,경기도 부천시 상동 538-4번지 그린힐 605호,37.5060089,126.7576312
493,이음수학입시학원,경기도 부천시 상동 544-10번지 한빛프라자 505호,37.50395234,126.7522433
494,토즈스터디센터상동2독서실,"경기도 부천시 상동 400번지 중동다모아쇼핑타운 601호, 602호 일부",37.49123788,126.7515508
495,팡팡파인슐레어학원,경기도 부천시 상동 573-8번지 1층,37.49695164,126.7438873
496,즐거운음악학원,경기도 부천시 상동 392번지 3층 302호,37.495009,126.749661
497,쎈수학러닝센터상동프라임보습학원,경기도 부천시 상동 536-4번지 한솔프라자 4층 408호,37.50709406,126.7552186
498,맥스플러스(max plus)보습학원,"경기도 부천시 상동 536-1번지 301, 303,604호",37.50720066,126.7544944
499,로뎀독서실,경기도 부천시 상동 537-1번지 크라운빌딩 503호,37.50697921,126.7563047
500,레몬영어어학원,경기도 부천시 상동 544-11번지 새롬프라자(15차) 603호,37.50367292,126.7521877
501,소리美(미)음악학원,경기도 부천시 상동 559-3번지 세종프라자 301호 일부,37.50031897,126.755388
502,하우스터디부천상동센터독서실,경기도 부천시 상동 544-10번지 한빛프라자 3층 303호 일부,37.50395234,126.7522433
503,정율Pre(프리)사관보습학원,"경기도 부천시 상동 534-6번지 419,420,421,422호",37.50625934,126.7524618
504,숙명소리숲음악학원,경기도 부천시 상동 533-8번지 대림타운 602호,37.50753681,126.7515527
505,솔뫼아카데미보습학원,"경기도 부천시 상동 573-6번지 대림프라자 404호,405호",37.49695055,126.7433897
506,부천메가스터디학원,"경기도 부천시 상동 546-9번지 청죽타워 1층 일부, 2층, 3층",37.5037881,126.7512713
507,아이원해법영어중국어보습학원,"경기도 부천시 상동 571-6번지 백송마을 212호,213호,214호",37.49851094,126.7483035
508,코다이음악학원,경기도 부천시 상동 557-1번지 홉스쿨청심교육문화센타 5층 일부,37.50095451,126.7534068
509,돌체음악학원,경기도 부천시 상동 590-1번지 목련마을 상가동 304호,37.49284143,126.7472485
510,STOP&START(스톱앤스타트)보습학원,경기도 부천시 상동 544-10번지 한빛프라자 504호,37.50395234,126.7522433
511,아트인아트미술학원,경기도 부천시 상동 533-8번지 대림타운 7층 701호,37.50753681,126.7515527
512,로드맵수학보습학원,경기도 부천시 상동 544-11번지 새롬프라자 303호,37.50367292,126.7521877
513,닥터정이클래스어학원,"경기도 부천시 상동 535-1번지 201,202호",37.5072624,126.7538609
514,뮤즈음악학원,"경기도 부천시 상동 536-6번지 보람씨티프라자 503호, 504호",37.507041,126.7556938
515,H . W(에이치더블유)보습학원,경기도 부천시 상동 557-4번지 늘푸른종합상가 204호 일부,37.50059423,126.7534646
516,한주영영어보습학원,경기도 부천시 상동 534-3번지 상동프라자 504호,37.50692698,126.7528893
517,어썸팩토리상동독서실,"경기도 부천시 상동 533-11번지 부건프라자 7층 703호 일부, 704호 일부",37.50743028,126.7522995
518,에세이잉글리쉬보습학원,경기도 부천시 상동 534-3번지 상동프라자 510호,37.50692698,126.7528893
519,열림독서실,경기도 부천시 상동 617-4번지 301~302호,37.48898705,126.7439713
520,눈높이러닝센터상동보습학원,"경기도 부천시 상동 395번지 반달마을 상가동 205호,206호",37.49337612,126.7529119
521,매티스원격학원,경기도 부천시 상동 534-1번지 승재프라자 502호 일부,37.50739566,126.7529669
522,Guru&apos;s(그루스)아카데메이아영어보습학원,경기도 부천시 상동 533-3번지 아트프라자 205호,37.5076517,126.7505005
523,중앙LNC(엘엔씨)학원,"경기도 부천시 상동 533-11번지 부건프라자 603호, 604호, 605호",37.50743028,126.7522995
524,진성수학입시학원,"경기도 부천시 상동 535-1번지 309, 310호",37.5072624,126.7538609
525,매쓰메이트수학보습학원,경기도 부천시 상동 536-2번지 월드컵타운 606호,37.50717415,126.7547433
526,이미영음악학원,"경기도 부천시 상동 571-6번지 2층 210호, 211호",37.49851094,126.7483035
527,비원에이치보습학원,"경기도 부천시 상동 544-10번지 한빛프라자 801호, 802호",37.50395234,126.7522433
528,카툰레시피웹툰만화학원,"경기도 부천시 상동 534-3번지 4층 410호, 5층 511호",37.50692698,126.7528893
529,딸기봐봐어학원,경기도 부천시 상동 544-11번지 새롬프라자(15차) 803호,37.50367292,126.7521877
530,한국중앙건축학원,경기도 부천시 상동 401번지 세원빌딩 6층 603호,37.49120455,126.7528287
531,뉴메이플삼성영어보습학원,경기도 부천시 상동 533-10번지 토성프라자텔 2층 205호,37.50748381,126.7520505
532,부천청담어학원,경기도 부천시 상동 536-1번지 보람프라자 5층 6층,37.50720066,126.7544944
533,카이로스보습학원,"경기도 부천시 상동 533-3번지 603호 일부, 604호 일부",37.5076517,126.7505005
534,G1230학원,경기도 부천시 상동 535-1번지 뱅뱅프라자 6층,37.5072624,126.7538609
535,아이캔어학원,경기도 부천시 상동 523-2번지 동양프라자 2층,37.5127622,126.7513882
536,바스키즈미술학원,경기도 부천시 상동 544-11번지 새롬프라자(15차) 206호,37.50367292,126.7521877
537,아카데미라운지부천상동독서실,경기도 부천시 상동 541-1번지 메가플러스빌딩 5층 502호 일부,37.50506361,126.7536872
538,와이빌어학원,경기도 부천시 상동 544-4번지 가나베스트타운 702호,37.50512386,126.7523525
539,창조의아침미술학원,"경기도 부천시 상동 535-3번지 6층 601호, 602호, 603호",37.50690193,126.7538281
540,매쓰플러스수학보습학원,경기도 부천시 상동 534-3번지 상동프라자 6층 610호,37.50692698,126.7528893
541,감동연기학원,경기도 부천시 상동 544-9번지 부천상동수석프라자 702호 일부,37.50417771,126.7522991
542,이오매스수학보습학원,경기도 부천시 상동 544-11번지 새롬프라자 302호,37.50367292,126.7521877
543,다온영수보습학원,경기도 부천시 상동 392번지 3층 303호 일부,37.495009,126.749661
544,온디느무용학원,경기도 부천시 상동 535-1번지 뱅뱅프라자 8층 801호,37.5072624,126.7538609
545,신액터스뮤지컬학원,경기도 부천시 상동 534-5번지 현해프라자 701호 일부,37.5065933,126.7527434
546,킹스리딩코치입시학원,경기도 부천시 상동 533-5번지 신주프라자 505호,37.50758957,126.7509418
547,킨더라임어학원,경기도 부천시 상동 536-2번지 월드컵타운 505호,37.50717415,126.7547433
548,생각을그리다미술수학보습학원,"경기도 부천시 상동 557-1번지 501호 일부, 502호",37.50095451,126.7534068
549,JenniferEnglish(제니퍼잉글리쉬)영어보습학원,경기도 부천시 상동 544-9번지 수석프라자 607호,37.50417771,126.7522991
550,EM(이엠)어학원,경기도 부천시 상동 532-11번지 201호 일부,37.5067002,126.7521663
551,시원음악학원,경기도 부천시 상동 523-3번지 대동프라자 2층 201호,37.51272662,126.7516032
552,상미해법영어보습학원,경기도 부천시 상동 585-6번지 명성빌딩 3층 일부,37.4942296,126.7434104
553,인히어연기학원,경기도 부천시 상동 544-11번지 새롬프라자15차 3층 301호,37.50367292,126.7521877
554,The Honors(디 아너스)어학원,경기도 부천시 상동 533-1번지 드라마 시티 601호 일부,37.50770474,126.7500253
555,토론하는아이들국어교습소,경기도 부천시 상동 399번지 3층 308호 일부,37.4900638,126.7502431
556,해법수학교실수학교습소,경기도 부천시 상동 589-1번지 목련마을 2802동 903호,37.4955355,126.7472959
557,송정영어교습소,경기도 부천시 상동 536-2번지 월드컵타운 307호,37.50717415,126.7547433
558,다정한이화피아노레슨음악교습소,경기도 부천시 상동 500-1번지 다정한마을 102호,37.51461947,126.7562457
559,라온실용음악교습소,경기도 부천시 상동 557-4번지 늘푸른종합상가 404호 일부,37.50059423,126.7534646
560,제이와이아뜰리에미술교습소,경기도 부천시 상동 546-1번지 태영메디칼 208호,37.50403629,126.7493591
561,키즈앤아트미술교습소,경기도 부천시 상동 571-1번지 2층 202호,37.50012444,126.7486373
562,유윤상영어교습소,경기도 부천시 상동 528-3번지 라일락마을 205호,37.5087011,126.7524989
563,도르레아트미술교습소,경기도 부천시 상동 500-2번지 다정한마을 상가동 105호,37.51320382,126.7557187
564,그림이있는풍경미술교습소,경기도 부천시 상동 538-4번지 그린힐 6층 602-3호,37.5060089,126.7576312
565,삼락피아노교습소,경기도 부천시 상동 592-3번지 1층일부(102호),37.49353646,126.7436955
566,진달래마을삼성영어교습소,경기도 부천시 상동 526-4번지 1층 505호 일부,37.51087466,126.7578301
567,SH(에스에이치)수학교습소,경기도 부천시 상동 546-6번지 서해프라자 610호 일부,37.50386764,126.7505472
568,쉬니영어교습소,경기도 부천시 상동 393번지 한아름마을 상가동 208호 일부,37.49559156,126.7524409
569,이데아과학교습소,경기도 부천시 상동 546-4번지 금호프라자 402호,37.50392989,126.7501625
570,비상잉글리시아이삼성래미안점영어교습소,경기도 부천시 상동 500-4번지 1층 107호,37.51425515,126.75869
571,하얀마을해법수학교습소,경기도 부천시 상동 570-1번지 아이파크 상가동 2층 202호,37.49945823,126.7531065
572,홍익연두미술교습소,경기도 부천시 상동 533-8번지 대림타운 506호,37.50753681,126.7515527
573,우리는벌거숭이화가미술교습소,경기도 부천시 상동 397번지 반달마을 201호,37.4926762,126.7500195
574,상동엔젤피아노음악교습소,경기도 부천시 상동 526-1번지 진달래마을 상가동 2층 204호,37.51084241,126.7553306
575,설선생껌수학교습소,경기도 부천시 상동 571-6번지 백송마을 208호,37.49851094,126.7483035
576,쥬니어바이올린음악교습소,경기도 부천시 상동 526-1번지 진달래마을 201호,37.51084241,126.7553306
577,경매NPL(엔피엘)학원,경기도 부천시 상동 535-9번지 시그마타워 404호,37.50617522,126.7553008
578,상동이화보습학원,"경기도 부천시 상동 570-1번지 2층 204호, 205호, 206호",37.49945823,126.7531065
579,온새미개념원리보습학원,"경기도 부천시 상동 542-4번지 상동동양파라곤 203호,204호",37.503846,126.7530806
580,열정과의지수학보습학원,경기도 부천시 상동 535-3번지 썬프라자 704호,37.50690193,126.7538281
581,반달음악교습소,경기도 부천시 상동 397번지 반달마을 상가동 3층 302호,37.4926762,126.7500195
582,상동일본어교습소,경기도 부천시 상동 544-5번지 그랜드프라자 702호,37.50473644,126.7523538
583,E(이)-런영어교습소,경기도 부천시 상동 328-10번지 경촌빌딩 2층 205호,37.48787742,126.7647121
584,진달래마을해법수학교습소,경기도 부천시 상동 526-4번지 105호,37.51087466,126.7578301
585,조선애착한국어교습소,경기도 부천시 상동 546-1번지 태영메디칼 702-1호,37.50403629,126.7493591
586,이수진미술교습소,경기도 부천시 상동 394-1번지 한아름아파트 302호 일부,37.49551463,126.7544087
587,유클리드수학교습소,경기도 부천시 상동 542-6번지 메디위즈 502호 일부,37.50339627,126.753444
588,로제타스톤반달마을영어교습소,경기도 부천시 상동 399번지 2층 202호,37.4900638,126.7502431
589,이투수학교습소,경기도 부천시 상동 523-11번지 늘푸른 상가 301호 일부,37.5125406,126.7531081
590,파레토수학교습소,경기도 부천시 상동 415번지 사랑마을 상가동 305호,37.49584612,126.7578227
591,라일락해법수학교습소,경기도 부천시 상동 525-3번지 라일락마을 205호,37.51111703,126.7531016
592,PLAY HANDS(플레이핸즈)미술교습소,경기도 부천시 상동 296-9번지 1층 우측,37.49029217,126.7603285
593,해법중국어상동교습소,경기도 부천시 상동 536-4번지 한솔프라자 5층 502호,37.50709406,126.7552186
594,솔샘피아노교습소,경기도 부천시 상동 393번지 한아름마을 상가동 207호,37.49559156,126.7524409
595,아람로지카독서실,경기도 부천시 상동 544-11번지 새롬프라자15차 702호,37.50367292,126.7521877
596,지능보습학원,"경기도 부천시 상동 400번지 중동다모아쇼핑타운 501호,503,505호",37.49123788,126.7515508
597,써밋보습학원,경기도 부천시 상동 523-3번지 대동프라자 4층 402호,37.51272662,126.7516032
598,오르다샘앤클래스상동보습학원,경기도 부천시 상동 536-2번지 월드컵타운 502호,37.50717415,126.7547433
599,연세스트링음악학원,경기도 부천시 상동 533-3번지 아트프라자 6층 605호,37.5076517,126.7505005
600,상동스즈키음악학원,경기도 부천시 상동 538-4번지 그린힐 603호,37.5060089,126.7576312
601,신비수학보습학원,경기도 부천시 상동 544-9번지 수석프라자 603호,37.50417771,126.7522991
602,생각을그리다미술수학보습학원,"경기도 부천시 상동 557-1번지 501호 일부, 502호",37.50095451,126.7534068
603,더조은컴퓨터학원,경기도 부천시 상동 542-6번지 굿닥터스빌딩 302호,37.50339627,126.753444
604,안&카어학보습학원,경기도 부천시 상동 534-1번지 승재프라자 802호,37.50739566,126.7529669
605,베스트음악학원,경기도 부천시 상동 523-3번지 대동프라자,37.51272662,126.7516032
606,차수학상동포스보습학원,경기도 부천시 상동 523-8번지 에이스프라자 502호 일부,37.51259337,126.7524972
607,드림댄스스포츠학원,경기도 부천시 상동 537-2번지 아름다운프라자 4층 401호,37.50695274,126.7565763
608,상동비원투혼보습학원,경기도 부천시 상동 544-10번지 한빛프라자 701~702호,37.50395234,126.7522433
609,샐리랭귀지스쿨어학보습학원,"경기도 부천시 상동 546-10번지 월드 프라자 701호 일부, 702호",37.50373464,126.7515542
610,어썸기타학원,경기도 부천시 상동 408-2번지 닛시프라자 5층 501호,37.48990495,126.751804
611,리더스현대음악학원,경기도 부천시 상동 544-11번지 새롬프라자 502호,37.50367292,126.7521877
612,EXP(이엑스피)수학보습학원,경기도 부천시 상동 544-11번지 새롬프라자 4층 407호,37.50367292,126.7521877
613,세란간호학원,경기도 부천시 상동 544-4번지 가나베스트타운쓰리 211호,37.50512386,126.7523525
614,상동관오무환국어보습학원,경기도 부천시 상동 544-10번지 한빛프라자 703호,37.50395234,126.7522433
615,해밀이스턴보습학원,경기도 부천시 상동 523-7번지 세진빌딩 4층,37.51261999,126.7523048
616,아트포럼리미술학원,경기도 부천시 상동 567-9번지 지하1층,37.50040186,126.7562472
617,자라다남아미술학원,"경기도 부천시 상동 533-11번지 601호, 602호 일부",37.50743028,126.7522995
618,줄리어드음악학원,경기도 부천시 상동 523-8번지 에이스프라자 4층 401호,37.51259337,126.7524972
619,마인드맵에듀논술교습소,경기도 부천시 상동 535-3번지 썬프라자 705호,37.50690193,126.7538281
620,아이맥에듀영어교습소,경기도 부천시 상동 535-3번지 썬프라자 607호,37.50690193,126.7538281
621,상동뮤엠영어교습소,경기도 부천시 상동 592-1번지 1층 일부,37.4938428,126.7436944
622,수학벌레수학교습소,경기도 부천시 상동 527-1번지 진달래마을 202호,37.50831883,126.7549431
623,도도피아노음악교습소,경기도 부천시 상동 570-1번지 상동아이파크 상가동 2층 201호,37.49945823,126.7531065
624,청개구리미술교습소,경기도 부천시 상동 589-1번지 목련마을 상가동 201호,37.4955355,126.7472959
625,슈베르트음악교습소,경기도 부천시 상동 399번지 반달마을 상가동 209호,37.4900638,126.7502431
626,뉴한양피아노과외교습소,경기도 부천시 상동 525-3번지 라일락마을 상가동 202호,37.51111703,126.7531016
627,뮤즈피아노교습소,경기도 부천시 상동 445번지 꿈동산 상가동 204호,37.49301545,126.7570743
628,파란나라피아노교습소,"경기도 부천시 상동 550-1번지 행복한마을 201호,202호",37.50298182,126.7492157
629,한아름해법영어교습소,경기도 부천시 상동 394-1번지 303호,37.49551463,126.7544087
630,아가페음악교습소,경기도 부천시 상동 394번지 한국아파트 상가동 107호 108호,37.49651503,126.7545524
631,애플수학교습소,경기도 부천시 상동 397번지 반달마을 상가동 305호,37.4926762,126.7500195
632,비상잉글리시아이샤이니영어교습소,경기도 부천시 상동 525-3번지 라일락마을 201호,37.51111703,126.7531016
633,수학적사고수학교습소,경기도 부천시 상동 534-1번지 승재 프라자 702호 일부,37.50739566,126.7529669
634,대치유클리드수학교습소,경기도 부천시 상동 542-6번지 메디위즈 502호 일부,37.50339627,126.753444
635,동선바둑교습소,경기도 부천시 상동 400번지 다모아빌딩 5층 502호,37.49123788,126.7515508
636,아이의사고가달라지는국어교습소,경기도 부천시 상동 533-1번지 드라마씨티 4층 401호 일부,37.50770474,126.7500253
637,창의교구수학교습소,경기도 부천시 상동 400번지 다모아빌딩 304호,37.49123788,126.7515508
638,연세윤피아노교습소,경기도 부천시 상동 527-3번지 진달래마을 상가동 205호,37.50803519,126.7571834
639,리틀쇼팽피아노교습소,"경기도 부천시 상동 397번지 반달마을 212호, 213호",37.4926762,126.7500195
640,스마트e(이)영어교습소,경기도 부천시 상동 550-3번지 행복한마을 상가 202호,37.50267977,126.7512184
641,홍익&아트미술교습소,경기도 부천시 상동 533-3번지 아트프라자 509호 일부,37.5076517,126.7505005
642,꿈동산삼성영어교습소,경기도 부천시 상동 445번지 꿈동산마을 1층 105-1호,37.49301545,126.7570743
643,한다국어교습소,경기도 부천시 상동 415번지 사랑마을 214호,37.49584612,126.7578227
644,행복한수학교습소,경기도 부천시 상동 550-1번지 2층 204호,37.50298182,126.7492157
645,코어과학교습소,경기도 부천시 상동 546-2번지 두성프라자 401호 일부,37.50398281,126.7496307
646,아트팩토리미술교습소,경기도 부천시 상동 397번지 반달마을 301호,37.4926762,126.7500195
647,스케치+(플러스)미술교습소,경기도 부천시 상동 551-1번지 푸른마을 202호,37.50262211,126.7537745
648,석사창의미술교습소,경기도 부천시 상동 395번지 반달마을 308호,37.49337612,126.7529119
649,지인수학교습소,경기도 부천시 상동 536-2번지 월드컵타운 504호 일부,37.50717415,126.7547433
650,윤선생우리집앞영어교실진달래써미트빌영어교습소,경기도 부천시 상동 536-6번지 보람씨티프라자 803호 일부,37.507041,126.7556938
651,상위3%루트수학교습소,"경기도 부천시 상동 415번지 사랑마을 201호,202호,203호",37.49584612,126.7578227
652,목련피아노교습소,경기도 부천시 상동 417번지 사랑마을 상가동 209호,37.49437596,126.7570812
653,정윤수학교습소,경기도 부천시 상동 550-3번지 2층 203호,37.50267977,126.7512184
654,이승희피아노음악교습소,경기도 부천시 상동 247-1번지 1층 일부,37.49036873,126.7625218
655,사랑미술교습소,경기도 부천시 상동 415번지 사랑마을 상가 304호,37.49584612,126.7578227
656,글로벌영어교습소,경기도 부천시 상동 415번지 사랑마을 상가동 215호,37.49584612,126.7578227
657,뮤엠반달영어교습소,경기도 부천시 상동 397번지 반달마을 상가동 214호,37.4926762,126.7500195
658,이화미술교습소,경기도 부천시 상동 445번지 2층201호꿈동산 상가,37.49301545,126.7570743
659,상동솔루니논술교습소,경기도 부천시 상동 546-3번지 대맥프라자 7층 701호 일부,37.50395639,126.7499136
660,EnglishPlanner영어교습소,경기도 부천시 상동 415번지 사랑마을상가동 114호 일부,37.49584612,126.7578227
661,정은정피아노음악교습소,경기도 부천시 상동 571-3번지 백송마을엘지에스케이(아) 2층 207호,37.49978628,126.7506062
662,상상고릴라미술교습소,경기도 부천시 상동 392번지 3층 303호 일부,37.495009,126.749661
663,뮤직아이음악교습소,경기도 부천시 상동 393번지 한아름마을 204호,37.49559156,126.7524409
664,유쌤영어교습소,경기도 부천시 상동 536-2번지 월드컵타운 5층 504-1호,37.50717415,126.7547433
665,상일삼성영어교습소,경기도 부천시 상동 571-6번지 백송마을 203호,37.49851094,126.7483035
666,독서당논술교습소,경기도 부천시 상동 399번지 반달마을 301호,37.4900638,126.7502431
667,상동예성음악교습소,경기도 부천시 상동 500-4번지 다정한마을 상가 2층 205호,37.51425515,126.75869
668,조재헌논술교습소,경기도 부천시 상동 536-4번지 한솔프라자 608호,37.50709406,126.7552186
669,동그라미바둑교습소,경기도 부천시 상동 533-11번지 부건프라자 403호 일부,37.50743028,126.7522995
670,하늘아이미술교습소,경기도 부천시 상동 407-1번지 대양훼미리코아 5층 504호 일부,37.49042692,126.7515196
671,에듀맵국어교습소,경기도 부천시 상동 546-9번지 청죽타워빌딩 504호,37.5037881,126.7512713
672,세움영어교습소,경기도 부천시 상동 536-2번지 월드컵타운 5층 503호 일부,37.50717415,126.7547433
673,가치인독서논술디베이트국어교습소,경기도 부천시 상동 546-1번지 태영메디칼 703호 일부,37.50403629,126.7493591
674,이화피아노레슨음악교습소,경기도 부천시 상동 500-2번지 다정한마을 107호,37.51320382,126.7557187
675,이인영음악교습소,경기도 부천시 상동 394-1번지 한아름아파트 202호,37.49551463,126.7544087
676,잉글리시아이영어교습소,경기도 부천시 상동 399번지 2층 205호,37.4900638,126.7502431
677,라일락미술교습소,경기도 부천시 상동 525-3번지 라일락마을 상가동 203호 일부,37.51111703,126.7531016
678,아뜰리에미술교습소,경기도 부천시 상동 393번지 한아름마을 상가동 208호 일부,37.49559156,126.7524409
679,Man To Man(맨투맨)수학교습소,경기도 부천시 상동 528-3번지 라일락마을 203호,37.5087011,126.7524989
680,부천영어교습소,경기도 부천시 상동 244-3번지 2층 일부,37.49079394,126.7633798
681,확인영어교습소,경기도 부천시 상동 523-11번지 늘푸른상가 301호 일부,37.5125406,126.7531081
682,New(뉴)뮤직트리음악교습소,경기도 부천시 상동 296-16번지 석환건설 1층 일부,37.49020207,126.7603287
683,서울경희음악학원,경기도 부천시 소사동 26-10번지 2층,37.48425896,126.7952395
684,김수영보습학원,경기도 부천시 소사동 6번지 2층,37.48625868,126.7899085
685,스타헨델피아노음악학원,"경기도 부천시 소사동 5-3번지 2층, 3층",37.48604405,126.7908024
686,에이플러스J(제이)보습학원,경기도 부천시 소사동 5-15번지 3층,37.48648444,126.7901906
687,에이플러스보습학원,경기도 부천시 소사동 5-15번지 2층,37.48648444,126.7901906
688,우리동네음악학원,경기도 부천시 소사동 35-27번지 1층,37.48448412,126.8003833
689,유레카입시학원,경기도 부천시 소사동 27-17번지 1층,37.48418133,126.7972184
690,예스(YES)영어교습소,경기도 부천시 소사본동 199번지 2층,37.47318225,126.7984129
691,솔루니논술교습소,경기도 부천시 소사본동 244-66번지 동문밀리언상가 219호,37.47568268,126.8011306
692,뮤엠영어소사원더영어교습소,경기도 부천시 소사본동 216-34번지 3층 일부,37.47206937,126.7957367
693,그림터미술교습소,경기도 부천시 소사본동 401-13번지 주공아파트 가상가 2층 203호,37.46765604,126.801853
694,예꼴아뜰리에미술교습소,경기도 부천시 소사본동 244-66번지 동문밀리언상가 208호,37.47568268,126.8011306
695,허브음악교습소,경기도 부천시 소사본동 201-1번지 1층 일부,37.47317988,126.797045
696,명품국어교습소,"경기도 부천시 소사본동 244-66번지 315호, 316호",37.47568268,126.8011306
697,파고다차이랑중국어교습소,경기도 부천시 소사본동 244-66번지 동문밀리언상가 3층 313호,37.47568268,126.8011306
698,수산나음악교습소,경기도 부천시 소사본동 403번지 두산아파트 2층 204호,37.4674555,126.8004971
699,엘리트한솔영어교습소,"경기도 부천시 소사본동 400-9번지 402호,403호",37.46896068,126.8007983
700,최고해법수학교습소,경기도 부천시 소사본동 244-66번지 동문밀리언상가 209호,37.47568268,126.8011306
701,슬기피아노교습소,경기도 부천시 소사본동 144-8번지 1층 일부,37.47779406,126.7925441
702,샤이니해법영어교습소,경기도 부천시 소사본동 144-7번지 1층 일부,37.47782089,126.792431
703,꿈꾸는꼬마고래미술교습소,경기도 부천시 소사본동 400-7번지 소사청구아파트 104호,37.46876942,126.7996005
704,옌클래식실용음악원음악교습소,경기도 부천시 소사본동 244-66번지 동문밀리언상가 207호,37.47568268,126.8011306
705,야석한문교습소,경기도 부천시 소사본동 230번지 2층 우측,37.47121352,126.7957956
706,통문장영어부천나라영어교습소,경기도 부천시 소사본동 400-3번지 306호,37.46790203,126.7981899
707,크레용아동미술교습소,경기도 부천시 소사본동 202-30번지 1층,37.47317877,126.796412
708,봉황수학교습소,경기도 부천시 소사본동 159-48번지 2층,37.47523406,126.7969942
709,Artkiddo(아트키도)미술교습소,경기도 부천시 소사본동 135번지 소사에스케이뷰 209호 일부,37.47712256,126.8001319
710,M(엠)수학교습소,경기도 부천시 소사본동 135번지 소사에스케이뷰 209호 일부,37.47712256,126.8001319
711,하늘땅어학원,경기도 부천시 소사본동 184-6번지 2층 일부,37.4745381,126.7957412
712,필음악학원,경기도 부천시 소사본동 409-6번지 아크리아Ⅲ 2층 203호,37.47246089,126.803355
713,J&J(제이앤제이)주니어랩영어보습학원,경기도 부천시 소사본동 409-1번지 유성메트로 503호,37.47274001,126.8032412
714,돌체피아노교습소,경기도 부천시 소사본동 233-1번지 1층 일부,37.47123831,126.7945182
715,우리역사다역사교습소,경기도 부천시 소사본동 244-66번지 동문밀리언상가 113호,37.47568268,126.8011306
716,더수학교습소,경기도 부천시 소사본동 178-30번지 에스엠벨리체 1층 101호,37.47351666,126.7938561
717,신디해법영어교습소,경기도 부천시 소사본동 411-1번지 주공뜨란채아파트 상가 204호,37.47092873,126.8030764
718,아카데미라운지부천소사독서실,경기도 부천시 소사본동 409-6번지 아크리아III 4층 401호 일부,37.47246089,126.803355
719,셀파우등생동문보습학원,경기도 부천시 소사본동 244-66번지 동문밀리언상가 2층 217~218호,37.47568268,126.8011306
720,한우리독서토론논술보습학원,경기도 부천시 소사본동 400-3번지 동우프라자빌딩 2층 205호,37.46790203,126.7981899
721,엔젤피아노음악학원,경기도 부천시 소사본동 409-6번지 아크리아Ⅲ 503호,37.47246089,126.803355
722,Able(에이블)비상보습학원,"경기도 부천시 소사본동 244-66번지 동문밀리언상가 201,202,203호",37.47568268,126.8011306
723,소사SKY(스카이)보습학원,경기도 부천시 소사본동 409-1번지 유성메트로 504호,37.47274001,126.8032412
724,소사미래독서실,경기도 부천시 소사본동 400-3번지 401~403호,37.46790203,126.7981899
725,명품보습학원,경기도 부천시 소사본동 400-3번지,37.46790203,126.7981899
726,시매쓰소사보습학원,경기도 부천시 소사본동 409-3번지 센트럴프라자 603호,37.47310149,126.8038846
727,김태균ELITE(엘리트)수학김성윤영어클리닉보습학원,경기도 부천시 소사본동 400-2번지 402호,37.46779348,126.7979415
728,인당신우어학보습학원,경기도 부천시 소사본동 143-20번지 2층,37.4780654,126.7931312
729,정진한솔보습학원,경기도 부천시 소사본동 197-3번지 4층,37.47487904,126.800104
730,ILS(아이엘에스)어학원,경기도 부천시 소사본동 407-6번지 하늘유치원 1층,37.47293207,126.8049364
731,좋은쌤보습학원,경기도 부천시 소사본동 199-1번지 2층,37.47307413,126.7984132
732,부천소사쓰리제이에듀영어보습학원,경기도 부천시 소사본동 409-1번지 502호,37.47274001,126.8032412
733,에드윈(Edwin)미술보습학원,"경기도 부천시 소사본동 198-34번지 2층,3층",37.47334443,126.7984124
734,좋은컴퓨터학원,경기도 부천시 소사본동 277-38번지 2층,37.47321139,126.7996337
735,아띠아트미술학원,경기도 부천시 소사본동 400-9번지 신한은행소사지점 305호,37.46896068,126.8007983
736,퍼펙트원어민영어교실창영센터보습학원,경기도 부천시 소사본동 244-33번지 삼원상가 1층 101호,37.47526774,126.8008491
737,고등이현수학보습학원,경기도 부천시 소사본동 244-66번지 동문밀리언상가 동문밀리언상가 211~216호,37.47568268,126.8011306
738,디딤돌미술학원,경기도 부천시 소사본동 70-17번지 2층 일부,37.48115034,126.7951351
739,폴리아수학보습학원,경기도 부천시 소사본동 409-1번지 유성메트로 601호,37.47274001,126.8032412
740,진성보습학원,"경기도 부천시 소사본동 400-9번지 401호,404호",37.46896068,126.8007983
741,눈높이러닝한신보습학원,경기도 부천시 소사본동 195-1번지 2층 일부,37.47498341,126.7979332
742,소일음악학원,경기도 부천시 소사본동 401-13번지 소사주공1단지아파트 204호,37.46765604,126.801853
743,애니샘미술학원,경기도 부천시 소사본동 400-3번지 301호,37.46790203,126.7981899
744,정세리음악학원,"경기도 부천시 소사본동 202-30번지 2층,3층",37.47317877,126.796412
745,큰나무독서실,경기도 부천시 소사본동 400-3번지 동우프라자 307호,37.46790203,126.7981899
746,윤선생영어숲소사어학원,경기도 부천시 소사본동 409-3번지 센트럴프라자 402호 일부,37.47310149,126.8038846
747,하이츠수학보습학원,경기도 부천시 소사본동 409-3번지 센트럴프라자 403호 전체,37.47310149,126.8038846
748,차수학정철어학보습학원,경기도 부천시 소사본동 409-1번지 유성메트로 403호,37.47274001,126.8032412
749,미술로생각하기부천미술학원,"경기도 부천시 소사본동 244-66번지 동문상가 3층 320,321,322,323호",37.47568268,126.8011306
750,예찬음악학원,경기도 부천시 소사본동 401-7번지 풍림아파트 2층 201호,37.46512354,126.8014416
751,소사해법수학보습학원,경기도 부천시 소사본동 409-1번지 유성메트로 505호,37.47274001,126.8032412
752,녹영꽃예술학원,경기도 부천시 소사본동 70-17번지 6층 602호,37.48115034,126.7951351
753,에드윈(Edwin)미술보습학원,"경기도 부천시 소사본동 198-34번지 2층,3층",37.47334443,126.7984124
754,영수마스터보습학원,경기도 부천시 소사본동 400-3번지 동우프라자 304호,37.46790203,126.7981899
755,동문밀리언삼성영어보습학원,"경기도 부천시 소사본동 244-66번지 동문밀리언상가 310,311,312",37.47568268,126.8011306
756,생각을키우는독서실,"경기도 부천시 소사본동 244-66번지 동문밀리언상가 220,221,222,223,224호",37.47568268,126.8011306
757,소사대한논리속독학원,경기도 부천시 소사본동 244-86번지 3층 일부,37.47484329,126.8002737
758,와이즈만보습학원,경기도 부천시 소사본동 409-4번지 제일프라자 5층 전체,37.47295775,126.8041337
759,이지독서실,경기도 부천시 소사본동 409-3번지 센트럴프라자 601호,37.47310149,126.8038846
760,소사왕수학보습학원,"경기도 부천시 소사본동 244-86번지 201호,203호",37.47484329,126.8002737
761,소사아인스보습학원,경기도 부천시 소사본동 230-13번지 2층,37.47040336,126.7962161
762,뉴턴사이언스보습학원,경기도 부천시 소사본동 409-1번지 유성메트로 603호,37.47274001,126.8032412
763,이현수학보습학원,"경기도 부천시 소사본동 244-66번지 411호, 412호",37.47568268,126.8011306
764,지젤발레무용학원,경기도 부천시 소사본동 409-6번지 아크리아Ⅲ 502호,37.47246089,126.803355
765,박현보습학원,"경기도 부천시 소사본동 231-23번지 성민기도원 3,4층",37.46965554,126.7962182
766,개별지도키움보습학원,경기도 부천시 소사본동 409-6번지 아크리아3 402호,37.47246089,126.803355
767,레지나음악학원,경기도 부천시 소사본동 100번지 2층,37.48037873,126.7918811
768,GnB(지앤비)소사어학원,경기도 부천시 소사본동 409-1번지 유성메트로 303호,37.47274001,126.8032412
769,탑코딩에듀컴퓨터학원,경기도 부천시 소사본동 409-6번지 아크리아III 3층 304호,37.47246089,126.803355
770,토즈스터디센터범박독서실,경기도 부천시 소사본동 409-4번지 제일프라자 401호,37.47295775,126.8041337
771,차수학정철어학보습학원,경기도 부천시 소사본동 409-1번지 유성메트로 403호,37.47274001,126.8032412
772,킹스어학원,경기도 부천시 소사본동 244-86번지 3층 일부,37.47484329,126.8002737
773,H&M(에이치앤엠)어학원,경기도 부천시 소사본동 277-12번지 한신아파트 4층 상가동 일부,37.47396049,126.8003778
774,신포니아음악학원,"경기도 부천시 소사본동 400-9번지 3층 301호,302호,303호",37.46896068,126.8007983
775,프라임영재보습학원,경기도 부천시 소사본동 144-8번지 2층,37.47779406,126.7925441
776,보미올미술학원,경기도 부천시 소사본동 409-6번지 아크리아III 303호,37.47246089,126.803355
777,인당신우어학보습학원,경기도 부천시 소사본동 143-20번지 2층,37.4780654,126.7931312
778,진학독서실,경기도 부천시 소사본동 155-21번지 5층,37.47631548,126.7971269
779,W(더블유)미술학원,경기도 부천시 소사본동 409-3번지 센트럴프라자 602호,37.47310149,126.8038846
780,SS에스에스청담음악학원,경기도 부천시 소사본동 409-1번지 유성메트로 501호,37.47274001,126.8032412
781,춤EVERYBODY(에브리바디)무용학원,경기도 부천시 소사본동 409-6번지 아크리아Ⅲ 3층 303호,37.47246089,126.803355
782,고탑ATop에이탑입시학원,경기도 부천시 소사본동 409-1번지 유성메트로 602호,37.47274001,126.8032412
783,전영미음악학원,"경기도 부천시 소사본동 244-66번지 416,417,418호",37.47568268,126.8011306
784,바하음악학원,"경기도 부천시 소사본동 135번지 소사 에스케이뷰 소사에스케이뷰상가동201호일부,202호,203호",37.47712256,126.8001319
785,뮤즈트리음악학원,경기도 부천시 소사본동 409-6번지 아크리아Ⅲ 202호,37.47246089,126.803355
786,경선음악학원,경기도 부천시 소사본동 216-34번지 3층 일부,37.47206937,126.7957367
787,공감음악학원,경기도 부천시 소사본동 277-12번지 한신아파트 상가동 4층일부(동남쪽),37.47396049,126.8003778
788,조나단영어보습학원,경기도 부천시 소사본동 409-6번지 아크리아Ⅲ 501호,37.47246089,126.803355
789,설리반보습학원,"경기도 부천시 소사본동 135번지 2층 204호, 205호, 206호",37.47712256,126.8001319
790,분석수학소사보습학원,경기도 부천시 소사본동 409-1번지 3층 302호,37.47274001,126.8032412
791,YTN(와이티앤)키즈보습학원,경기도 부천시 소사본동 409-1번지 유성메트로 404호,37.47274001,126.8032412
792,셀파우등생교실직영보습학원,경기도 부천시 소사본동 183-3번지 부천농업협동조합 2층 일부,37.47396063,126.795268
793,뉴라임음악학원,"경기도 부천시 소사본동 244-66번지 동문밀리언상가 204,205,206호",37.47568268,126.8011306
794,프랭클린영어보습학원,경기도 부천시 소사본동 409-6번지 아크리아Ⅲ 302호,37.47246089,126.803355
795,오성독서실,"경기도 부천시 소사본동 409-1번지 유성메트로 604호, 605호",37.47274001,126.8032412
796,눈높이러닝성주보습학원,경기도 부천시 송내동 586-3번지 2층 일부,37.48345479,126.7698591
797,에이플러스방과후보습학원,경기도 부천시 송내동 609-10번지 3층,37.47962655,126.7703572
798,TIME(타임)어학원,경기도 부천시 송내동 372번지 푸르지오 상가 105호,37.48484213,126.7652418
799,새도레미음악학원,경기도 부천시 송내동 349-9번지 2층,37.48709519,126.7567206
800,필하모니음악학원,경기도 부천시 송내동 588-9번지 2층 8호,37.48145446,126.7697975
801,서울도배학원,경기도 부천시 송내동 355-8번지 3층,37.48695551,126.7588807
802,한영검정고시학원,경기도 부천시 송내동 382-3번지 1층 전체,37.48257021,126.7690478
803,대신IT(아이티)컴퓨터학원,경기도 부천시 송내동 433-25번지 3층,37.47976065,126.7653031
804,사라피아노학원,경기도 부천시 송내동 327-2번지 송내동성호아파트 2층 1호,37.48403728,126.7550234
805,송내베스트보습학원,경기도 부천시 송내동 335-17번지 2층,37.48571042,126.758048
806,플랜비미술학원,"경기도 부천시 송내동 708-7번지 대한빌딩 501, 502",37.48501432,126.7526345
807,꿈열매음악학원,경기도 부천시 송내동 612-2번지 2층,37.47934729,126.7703807
808,편샘보습학원,경기도 부천시 송내동 373번지 대우프라자 706호,37.48426338,126.7641921
809,스터디아이클럽원격학원,경기도 부천시 송내동 709-2번지 라라스타찌오네 4층,37.48678958,126.7527755
810,영재주니어미술학원,경기도 부천시 송내동 396번지 2층,37.48332172,126.7619113
811,부천공무원합격의신고시학원,경기도 부천시 송내동 373번지 대우프라자 10층 1001호,37.48426338,126.7641921
812,훈남토익어학원,경기도 부천시 송내동 299-2번지 6층,37.48692678,126.7537475
813,얼라이브연기연극학원,경기도 부천시 송내동 349-8번지 2층,37.48709564,126.7569354
814,YBM(와이비엠)시사Engloo(잉글루)송내외국어학원,경기도 부천시 송내동 614-3번지 4층,37.47931856,126.7695215
815,부천베가스어학원,경기도 부천시 송내동 373번지 대우프라자 5층 506호,37.48426338,126.7641921
816,창작미술음악학원,경기도 부천시 송내동 433-11번지 부천축협송내지점 3층 일부,37.47987733,126.7650766
817,박현주해법학원,경기도 부천시 송내동 368번지 뉴서울아파트 뉴서울상가 305호,37.48571099,126.7627177
818,삼성데이비드영·수보습학원,경기도 부천시 송내동 614-3번지 2층 전체,37.47931856,126.7695215
819,스마트스터디보습학원,경기도 부천시 송내동 365-5번지 동궁빌딩 4층 일부,37.48484372,126.7615785
820,비바체음악학원,경기도 부천시 송내동 373번지 대우프라자 705호,37.48426338,126.7641921
821,송내정미정수학보습학원,경기도 부천시 송내동 393번지 성보빌딩 4층 403호,37.48345993,126.7634145
822,한솔플러스수학보습학원,"경기도 부천시 송내동 372번지 부천중동역푸르지오상가동 101호, 102호",37.48484213,126.7652418
823,미래음악학원,경기도 부천시 송내동 453-20번지 2층,37.47970541,126.7647154
824,새한음악학원,경기도 부천시 송내동 454-18번지 2층,37.47967638,126.7682202
825,새열린음악학원,경기도 부천시 송내동 463-68번지 3층,37.47917667,126.7661303
826,메이저실용음악학원,경기도 부천시 송내동 709-1번지 5층 일부,37.48696081,126.7527976
827,논리수학보습학원,경기도 부천시 송내동 433-14번지 2층,37.47995764,126.764692
828,송내지엠에스아카데미보습학원,경기도 부천시 송내동 464-1번지 한빛삼성유니스쿨 제일빌딩 3층,37.47929502,126.7667404
829,새샘2보습학원,경기도 부천시 송내동 363-3번지 지동빌딩 3층,37.48695677,126.7594912
830,중동수학보습학원,경기도 부천시 송내동 370-3번지 대지빌딩 5층,37.48582175,126.7640176
831,새샘보습학원,경기도 부천시 송내동 363-6번지 2층,37.48690397,126.760102
832,예율음악교습소,경기도 부천시 송내동 461-4번지,37.47965088,126.7689891
833,씽크앤아트부천송내점미술교습소,경기도 부천시 송내동 315번지 송내역파인푸르지오1단지 가동 B115호,37.48540509,126.7542161
834,새유진음악교습소,경기도 부천시 송내동 372번지 부천중동역푸르지오 상가동 106호,37.48484213,126.7652418
835,A.1English(에이원잉글리쉬)영어교습소,경기도 부천시 송내동 368번지 뉴서울아파트 216-1호,37.48571099,126.7627177
836,지니소프트컴퓨터교습소,경기도 부천시 송내동 368번지 3층 302호 좌측 일부,37.48571099,126.7627177
837,리틀스케치미술교습소,경기도 부천시 송내동 373번지 대우프라자 703호,37.48426338,126.7641921
838,즐거운조이아트(Joy Art)미술교습소,경기도 부천시 송내동 461-17번지 1층 일부,37.4796788,126.7694413
839,stella(스텔라)해법영어교습소,"경기도 부천시 송내동 377-7번지 부천 중동역 2차 푸르지오 A단지 203호 202호,203호",37.48517951,126.767242
840,하은음악교습소,경기도 부천시 송내동 463-106번지 송내e-편한세상 110호,37.47859376,126.7675001
841,이화영어교습소,경기도 부천시 송내동 368번지 뉴서울아파트상가동 130호,37.48571099,126.7627177
842,푸른나무수학교습소,경기도 부천시 송내동 368번지 뉴서울아파트 215호,37.48571099,126.7627177
843,맑은소리음악교습소,경기도 부천시 송내동 609번지 2층,37.48001326,126.7699942
844,엠투유수학교습소,경기도 부천시 송내동 433-17번지 2층 전체,37.48003789,126.7642734
845,푸른빌피아노교습소,경기도 부천시 송내동 377-7번지 부천 중동역 2차 푸르지오 A단지 중동역2차푸르지오A단지상가동 201호,37.48517951,126.767242
846,단테음악교습소,경기도 부천시 송내동 315-3번지 송내역파인푸르지오2단지 G동 1층 103호,37.48440459,126.7540272
847,삼성영어교습소,경기도 부천시 송내동 463-62번지 1층 108호,37.47925947,126.7669892
848,신나라아트미술교습소,경기도 부천시 송내동 588-2번지 2층 우측일부,37.48204022,126.7698522
849,ELYON(엘리온)영어교습소,경기도 부천시 송내동 368번지 상가동 2층 201호,37.48571099,126.7627177
850,하늘빛미술교습소,경기도 부천시 송내동 372번지 대우푸르지오 상가 1층 110호,37.48484213,126.7652418
851,빛나는음악교습소,경기도 부천시 송내동 461-21번지 1층 일부,37.48003924,126.7694627
852,바른피아노교습소,경기도 부천시 송내동 460-1번지 1층 일부,37.47982157,126.7687399
853,1:3(일대삼)영어교습소,경기도 부천시 송내동 463-71번지 1층 일부,37.47943365,126.7684923
854,백선생수학교습소,경기도 부천시 송내동 368번지 상가동 2층 204호,37.48571099,126.7627177
855,김현수학교습소,경기도 부천시 송내동 368번지 뉴서울아파트 302호,37.48571099,126.7627177
856,작은화가마을미술교습소,경기도 부천시 송내동 588-1번지 1층 일부,37.48214834,126.7698519
857,Wings(윙스)영어교습소,경기도 부천시 송내동 454-14번지 1층 일부,37.47987514,126.768491
858,김윤수수학교습소,경기도 부천시 송내동 439-21번지 2층,37.47968418,126.7676097
859,판테온미술학원,경기도 부천시 송내동 365-5번지 동궁빌딩 3층 일부,37.48484372,126.7615785
860,찬미피아노교습소,경기도 부천시 송내동 336-15번지 2층 일부,37.48590068,126.7585562
861,김미라음악교습소,경기도 부천시 송내동 396번지 1층 일부,37.48332172,126.7619113
862,기초튼튼영어교습소,경기도 부천시 송내동 363-10번지 덕산빌딩 107호,37.48684239,126.7608258
863,정수학교습소,경기도 부천시 송내동 377-7번지 중동역2차푸르지오단지 상가 2층 204호,37.48517951,126.767242
864,업앤업보습학원,경기도 부천시 송내동 373번지 대우프라자 707호,37.48426338,126.7641921
865,끈기와열정보습학원,경기도 부천시 송내동 464-1번지 한빛삼성유니스쿨 2층,37.47929502,126.7667404
866,김윤영음악학원,경기도 부천시 송내동 368번지 뉴서울아파트 상가동 308호,37.48571099,126.7627177
867,에이치앤제이(HnJ)영어수학보습학원,경기도 부천시 송내동 454번지 3층,37.48018132,126.7684109
868,HUN DANCE COMPANY(훈댄스컴퍼니)무용학원,경기도 부천시 송내동 572-9번지 3층 전체,37.4840667,126.7740745
869,송내우리독서실,경기도 부천시 송내동 366-7번지 2층 일부,37.48387268,126.7625766
870,송일음악학원,경기도 부천시 송내동 398-2번지 2층 전체,37.48260035,126.7616309
871,가원조경기술학원,경기도 부천시 송내동 389-2번지 (주)넷웨이브본사사옥 2층 일부,37.48348091,126.7648843
872,율곡독서실,"경기도 부천시 송내동 464-1번지 한빛삼성유니스쿨 5층,6층",37.47929502,126.7667404
873,단비무용학원,경기도 부천시 송내동 373번지 대우프라자 607호,37.48426338,126.7641921
874,THE(더)좋은보습학원,경기도 부천시 송내동 398-2번지 3층,37.48260035,126.7616309
875,최고보습학원,경기도 부천시 송내동 400-35번지 서울빌딩 5층,37.48321064,126.7604644
876,토즈스터디센터송내독서실,경기도 부천시 송내동 381번지 501호 일부,37.48373233,126.7689651
877,유앤아이용접학원,경기도 부천시 송내동 400-16번지 동원빌딩 6층,37.48326704,126.7616062
878,다니엘영수보습학원,경기도 부천시 송내동 588-9번지 2층 일부,37.48145446,126.7697975
879,트인수학보습학원,경기도 부천시 송내동 393번지 성보빌딩 3층 일부,37.48345993,126.7634145
880,메가수학카이영어보습학원,경기도 부천시 송내동 366-7번지 4층,37.48387268,126.7625766
881,애플비보습학원,경기도 부천시 송내동 396-1번지 5층전체 및 6층일부,37.48334921,126.7621373
882,숲속산소독서실,경기도 부천시 송내동 393-6번지 경복빌딩 5층,37.48340467,126.7628268
883,하이스트음악학원,경기도 부천시 송내동 369-1번지 2층 일부,37.48523149,126.7617468
884,쎈수학러닝센터송내서진보습학원,경기도 부천시 송내동 464-2번지 2층 일부,37.47917716,126.766379
885,바른독서실,경기도 부천시 송내동 366번지 상승프라자 4층 402호,37.48387047,126.7614912
886,하우스터디부천송내센터독서실,"경기도 부천시 송내동 464-1번지 5층일부,6층전체",37.47929502,126.7667404
887,류수학보습학원,경기도 부천시 송내동 393-6번지 경복빌딩 2층,37.48340467,126.7628268
888,아이위시영어보습학원,"경기도 부천시 송내동 450-3번지 유진프라자 103호, 104호",37.47896009,126.7659614
889,송내이화보습학원,경기도 부천시 송내동 588-3번지 3층,37.48167971,126.7697968
890,송내이스턴보습학원,경기도 부천시 송내동 369-1번지 3층 일부,37.48523149,126.7617468
891,Arte(아르테)음악학원,경기도 부천시 송내동 463-62번지 4층,37.47925947,126.7669892
892,현대해법영어보습학원,경기도 부천시 송내동 433-25번지 2층,37.47976065,126.7653031
893,Marvelous(마블러스)영어수학보습학원,경기도 부천시 송내동 709-7번지 2층 204호,37.48604164,126.7527215
894,창작미술음악학원,경기도 부천시 송내동 433-11번지 부천축협송내지점 3층 일부,37.47987733,126.7650766
895,고려e(이)스쿨보습학원,경기도 부천시 송내동 396-1번지 송내메디칼빌딩 2층 전체,37.48334921,126.7621373
896,정한리더스보습학원,경기도 부천시 심곡동 92-17번지 2층,37.49550873,126.783267
897,알찬미술음악학원,"경기도 부천시 심곡동 334-2번지 2,3층",37.49020992,126.7732756
898,뉴챌린지보습학원,경기도 부천시 심곡동 188-5번지 3층 3층 및 4층,37.48803928,126.7880491
899,APPLE(애플)컴퓨터디자인학원,경기도 부천시 심곡동 169-8번지 2층,37.4857895,126.7846071
900,Gets(겟츠)정한보습학원,경기도 부천시 심곡동 327-6번지 연빌딩 2층,37.49081995,126.7765755
901,호크마보습학원,경기도 부천시 심곡동 155-2번지 3층 일부 (좌측),37.4894038,126.7853202
902,신나라음악학원,경기도 부천시 심곡동 345-52번지 2층,37.48834571,126.773711
903,대한폴댄스연맹댄스학원,"경기도 부천시 심곡동 145-6번지 부천역 푸르지오시티 2층 205,206호",37.48515142,126.7854908
904,소리사랑음악학원,경기도 부천시 심곡동 155-2번지 4층 부천한의원,37.4894038,126.7853202
905,와이제이검정고시학원,경기도 부천시 심곡동 145-11번지 5층,37.48523195,126.7851853
906,배우리보습학원,경기도 부천시 심곡동 155-17번지 동강빌딩 2층,37.48895459,126.7860225
907,엠비씨아카데미뷰티미용학원,경기도 부천시 심곡동 173-1번지 3층,37.48459528,126.7819648
908,예가람음악학원,경기도 부천시 심곡동 155-17번지 동강빌딩 4층,37.48895459,126.7860225
909,부천간호학원,경기도 부천시 심곡동 168-8번지 삼영빌딩 4층 일부,37.48598575,126.7835437
910,싱어송뮤직랩실용음악학원,경기도 부천시 심곡동 377-46번지 5층 전체,37.48834998,126.7806648
911,APPLE(애플)컴퓨터디자인학원,경기도 부천시 심곡동 169-8번지 2층,37.4857895,126.7846071
912,크리스챤쇼보뷰티미용학원,경기도 부천시 심곡동 355-5번지 정일빌딩 2층,37.48906694,126.7834329
913,부천경희실용음악학원,경기도 부천시 심곡동 349-6번지 3층,37.48812065,126.7833
914,정상컴퓨터전산회계학원,경기도 부천시 심곡동 164-3번지 김흥균산부인과 3층,37.48709424,126.7836874
915,연세간호학원,경기도 부천시 심곡동 169-8번지 3층,37.4857895,126.7846071
916,부천박문각고시학원,경기도 부천시 심곡동 349-10번지 5층 일부,37.48803925,126.7831306
917,이지댄스학원,경기도 부천시 심곡동 164-12번지 2층,37.48742771,126.783743
918,이림보습학원,경기도 부천시 심곡동 800번지 하나리아벨주상복합아파트 2층 204호,37.48834308,126.7866575
919,가바플러스어학원,경기도 부천시 심곡동 173-1번지 지지아나 신관 3층 일부,37.48459528,126.7819648
920,부천애견미용학원,경기도 부천시 심곡동 367-32번지 민연빌딩 3층,37.49029298,126.7838024
921,소리사랑음악학원,경기도 부천시 심곡동 155-2번지 4층 부천한의원,37.4894038,126.7853202
922,뉴챌린지미술학원,경기도 부천시 심곡동 188-5번지 2층,37.48803928,126.7880491
923,부천전자기기학원,"경기도 부천시 심곡동 351-2번지 2층, 3층일부",37.48712358,126.7753768
924,수능작전소보습학원,경기도 부천시 심곡동 173-1번지 204호,37.48459528,126.7819648
925,고스락미술학원,경기도 부천시 심곡동 330-50번지 2층 일부,37.48962614,126.7742385
926,와세다일본어학원,경기도 부천시 심곡동 190-12번지 2층 일부,37.48712003,126.7830202
927,가림독서실,경기도 부천시 심곡동 157-4번지 청안빌딩 5층 일부,37.48987121,126.7847196
928,예은음악학원,경기도 부천시 심곡동 188-3번지 3층,37.48821006,126.7878225
929,영원한미소&황금박쥐미술만화학원,경기도 부천시 심곡동 169-10번지 외환은행부천지점 5층,37.48581622,126.7844374
930,심곡소리샘음악학원,경기도 부천시 심곡동 151-10번지 ILS빌딩 2층,37.48748725,126.7867165
931,글로벌외국어학원,경기도 부천시 심곡동 145-11번지 정주빌딩 4층,37.48523195,126.7851853
932,만통IOT(아이오티)로봇학원,경기도 부천시 심곡동 355-2번지 한영빌딩 4층 403호,37.48984164,126.7833515
933,건택사단부천캠프연기연극학원,경기도 부천시 심곡동 355-8번지 선영프라자 2층 전체,37.48942751,126.7835223
934,하나보습미술학원,경기도 부천시 심곡동 334-40번지 명성빌딩 3층,37.48984196,126.774023
935,청운검정고시학원,경기도 부천시 심곡동 168-8번지 삼영빌딩 4층 일부,37.48598575,126.7835437
936,예손실용음악교습소,경기도 부천시 심곡동 440-9번지 방주빌딩 4층,37.49279245,126.7809682
937,리스트피아노교습소,경기도 부천시 심곡동 304-17번지 2층 좌측,37.49134877,126.7751378
938,초록나무미술교습소,경기도 부천시 심곡동 151-1번지 1층,37.48800926,126.7864097
939,피아노의숲by(바이)졍피아노교습소,경기도 부천시 심곡동 334-35번지 나은영피아노 1층,37.48967838,126.7732998
940,주시엘음악교습소,경기도 부천시 심곡동 327-6번지 연빌딩 1층 일부,37.49081995,126.7765755
941,심곡방과후수학교습소,경기도 부천시 심곡동 326-18번지 1층 일부,37.49062052,126.7759429
942,피아노치는즐거움피아노교습소,경기도 부천시 심곡동 92-12번지 1층 일부,37.49557151,126.7831085
943,불도저국어교습소,경기도 부천시 심곡동 92-12번지 1층 좌측 일부,37.49557151,126.7831085
944,제이아트미술교습소,경기도 부천시 심곡동 297-24번지 성주빌딩 2층 일부,37.49226272,126.777193
945,꿈꾸는수학교습소,경기도 부천시 심곡동 304-17번지 2층 우측,37.49134877,126.7751378
946,정상컴퓨터전산회계학원,경기도 부천시 심곡동 164-3번지 김흥균산부인과 3층,37.48709424,126.7836874
947,아름다운사람들미용학원,"경기도 부천시 심곡동 355-8번지 선영프라자 6층전체, 7층일부",37.48942751,126.7835223
948,대성간호학원,경기도 부천시 심곡동 104-3번지 4층 일부,37.49184329,126.7841258
949,니하오중국어학원,경기도 부천시 심곡동 190-18번지 4층,37.48701195,126.7830432
950,청음피아노학원,"경기도 부천시 심곡동 100-39번지 1,2층",37.49381626,126.7840183
951,부천인테리어기술학원,경기도 부천시 심곡동 164-2번지 3층 301호,37.48729246,126.7836868
952,이수보습학원,경기도 부천시 심곡동 323-13번지 3층,37.4912023,126.7739397
953,아이니중국어학원,경기도 부천시 심곡동 170-3번지 3층 일부,37.4854276,126.783794
954,미로스타뷰티아카데미미용학원,경기도 부천시 심곡동 175-3번지 영진빌딩 4층,37.48559637,126.7824933
955,아카데미외국어학원,"경기도 부천시 심곡동 190-10번지 3층일부,4층일부",37.48726425,126.7830537
956,알찬미술음악학원,"경기도 부천시 심곡동 334-2번지 2,3층",37.49020992,126.7732756
957,김정안한복양재학원,경기도 부천시 심곡동 355-2번지 한영빌딩 3층 일부,37.48984164,126.7833515
958,부천나레스트서연피부미용미용학원,경기도 부천시 심곡동 172-15번지 6층 일부,37.48431882,126.783492
959,정통아이비보습학원,경기도 부천시 심곡동 82-2번지 3층,37.49784514,126.7847981
960,하나보습미술학원,경기도 부천시 심곡동 334-40번지 명성빌딩 3층,37.48984196,126.774023
961,명문독서실,경기도 부천시 심곡동 124-17번지 3층,37.48504118,126.7892675
962,소리엘음악학원,경기도 부천시 심곡동 330-50번지 2층 일부,37.48962614,126.7742385
963,헨델음악학원,경기도 부천시 심곡동 297-24번지 성주빌딩 4층,37.49226272,126.777193
964,BBS(비비에스)미용예술미용학원,경기도 부천시 심곡동 172-19번지 4층,37.48420338,126.7844082
965,랍슨키즈영어보습학원,경기도 부천시 심곡동 153-10번지 호정빌딩 1층 일부,37.48834242,126.7862957
966,아원아트미술학원,경기도 부천시 심곡동 155-17번지 동강빌딩 3층,37.48895459,126.7860225
967,엔젤간호학원,경기도 부천시 심곡동 175-6번지 해태쇼핑 1602호 일부,37.48539809,126.7824599
968,하늘나무보습학원,경기도 부천시 심곡동 169-8번지 3층,37.4857895,126.7846071
969,스카이라움승무원학원,"경기도 부천시 심곡동 175-9번지 로데오빌 602호, 603호 일부",37.48543269,126.781691
970,부천인테리어기술학원,경기도 부천시 심곡동 164-2번지 3층 301호,37.48729246,126.7836868
971,윤선생IGSE(아이지에스이)아카데미보습학원,경기도 부천시 심곡동 367-26번지 부강빌딩 4층 일부,37.49103987,126.7833027
972,H&T(에이치앤티)나래음악학원,경기도 부천시 심곡본동 747-21번지 2층 일부 (서쪽),37.48212628,126.7866867
973,쥴리아드음악학원,경기도 부천시 심곡본동 687-3번지,37.48104432,126.78141
974,세종요리제과제빵학원,경기도 부천시 심곡본동 532-11번지 5층,37.48401586,126.775748
975,대현보습학원,경기도 부천시 심곡본동 701-12번지 3층,37.47801338,126.779497
976,스케치북미술학원,경기도 부천시 심곡본동 739-1번지 가동 4층,37.48254324,126.783158
977,중앙영재보습학원,경기도 부천시 심곡본동 624번지 3층,37.47751035,126.7755755
978,부천맨토맨일대일푸르넷보습학원,경기도 부천시 심곡본동 678-13번지 3층,37.48123342,126.7813529
979,부천이용학원,경기도 부천시 심곡본동 541-15번지 2층 일부,37.48345512,126.7793564
980,눈높이러닝센터송내명인보습학원,경기도 부천시 심곡본동 648-11번지 2층 일부,37.47973275,126.7786892
981,동녘조리학원,경기도 부천시 심곡본동 589-4번지 3층 일부,37.48323523,126.777435
982,하버드독서실,"경기도 부천시 심곡본동 630-23번지 2,3층",37.47729349,126.7752483
983,이엠티씨(EMTC)영수보습학원,경기도 부천시 심곡본동 701-7번지 2층,37.4780668,126.7791577
984,케이원보습학원,경기도 부천시 심곡본동 611-11번지 2층 전체,37.4786479,126.7767705
985,앤더슨영어보습학원,경기도 부천시 심곡본동 688-2번지 광성빌딩 301호,37.47968377,126.7813801
986,TheBest(더베스트)영어수학보습학원,경기도 부천시 심곡본동 642-22번지 2층,37.4784615,126.7782407
987,뮤즈피아노음악학원,경기도 부천시 심곡본동 649번지 3층,37.48026528,126.779185
988,스펙트럼영어보습학원,경기도 부천시 심곡본동 723-5번지 2층 일부,37.47948612,126.7816859
989,부천바리스타학원,경기도 부천시 심곡본동 552번지 데카에셋빌딩 503호,37.48326481,126.7835742
990,복사골미술학원,경기도 부천시 심곡본동 608-12번지 3층,37.47917666,126.7752991
991,TOP(탑)비젼보습학원,경기도 부천시 심곡본동 608-12번지 2층 전체,37.47917666,126.7752991
992,Wien(빈)음악학원,경기도 부천시 심곡본동 603-12번지 가나안순복음교회 2층,37.48051429,126.7774658
993,한울음악학원,경기도 부천시 심곡본동 709번지 2층 204호,37.47807021,126.7809665
994,CEJ(씨이제이)영어수학보습학원,"경기도 부천시 심곡본동 697-4번지 1층일부,2층전체",37.47820478,126.7806609
995,민경호수학보습학원,경기도 부천시 심곡본동 613-3번지 2층,37.47853829,126.7759907
996,뮤솔맘보습학원,경기도 부천시 심곡본동 744-11번지 2층,37.48198904,126.7855452
997,서은실피아노교습소,경기도 부천시 심곡본동 711번지 1층 일부,37.47865679,126.7814622
998,책으로나누는이야기사회교습소,경기도 부천시 심곡본동 698-2번지 심곡빌딩 201호 일부,37.47845768,126.780988
999,키즈톡미술교습소,경기도 부천시 심곡본동 588-1번지 부천라비앙로제 2층 일부,37.48337785,126.7766318
1000,차이랑심곡본점중국어교습소,경기도 부천시 심곡본동 562-115번지 태경삼익아파트 1층 103호,37.47787328,126.7816567
1001,마술피리음악교습소,경기도 부천시 심곡본동 696-13번지 1층,37.47862793,126.78049
1002,극동피아노의숲음악교습소,"경기도 부천시 심곡본동 566-1번지 부천아파트 214호,215호",37.47692667,126.7813543
1003,지혜중고등영어교습소,경기도 부천시 심곡본동 621-9번지 1층 일부,37.47842851,126.7751318
1004,봄나래상상미술교습소,경기도 부천시 심곡본동 805-7번지 1층 일부,37.47676077,126.7746621
1005,모두의영어교습소,경기도 부천시 심곡본동 698-2번지 심곡빌딩 201호 우측 일부,37.47845768,126.780988
1006,부천남부해법영어교습소,경기도 부천시 심곡본동 639-23번지 진명빌딩 2층,37.47820918,126.7782189
1007,은수학교습소,경기도 부천시 심곡본동 698-2번지 심곡빌딩 2층 202호,37.47845768,126.780988
1008,꿈꾸는나무보습학원,경기도 부천시 심곡본동 678-15번지 2층,37.48120712,126.7817374
1009,오렌지산소독서실,"경기도 부천시 심곡본동 623번지 2,3층",37.47759928,126.7749648
1010,필립스엑세터(PhillipsExeter)쥬니어어학원,경기도 부천시 심곡본동 709-3번지 은하빌딩 3층,37.47796105,126.7804129
1011,아트클래스미술학원,경기도 부천시 심곡본동 701-11번지 3층 전체,37.47787853,126.7796557
1012,기토보습학원,경기도 부천시 심곡본동 709-3번지 은하빌딩 2층,37.47796105,126.7804129
1013,태풍보습학원,경기도 부천시 심곡본동 678-4번지 2층,37.48176579,126.7817696
1014,새반석음악학원,경기도 부천시 심곡본동 626-30번지 3층,37.4773439,126.7780519
1015,일등해법보습학원,경기도 부천시 심곡본동 730-3번지 1층,37.48092865,126.7821904
1016,피렌체음악학원,경기도 부천시 심곡본동 695-9번지 1층,37.47898807,126.7803533
1017,포인트업독서실,경기도 부천시 심곡본동 688-2번지 광성빌딩 4층,37.47968377,126.7813801
1018,은빛음악학원,경기도 부천시 심곡본동 658-11번지 3층,37.48109367,126.7789112
1019,뉴예본음악학원,경기도 부천시 심곡본동 623-6번지,37.47740128,126.7750784
1020,유엔아이보습학원,경기도 부천시 심곡본동 623-6번지 태화빌딩 3층,37.47740128,126.7750784
1021,세종통역가이드컴퓨터학원,경기도 부천시 심곡본동 738-20번지 202호,37.48273368,126.7838245
1022,진솔보습학원,경기도 부천시 심곡본동 723-2번지 해창빌딩 2층,37.47971143,126.7817192
1023,세종통역가이드컴퓨터학원,경기도 부천시 심곡본동 738-20번지 202호,37.48273368,126.7838245
1024,펙트미용학원,경기도 부천시 심곡본동 590-6번지 그린화인빌 201호,37.48284871,126.777911
1025,바하뮤직슐레음악교습소,경기도 부천시 약대동 209번지 두산위브 트레지움아파트 2단지 상가 203호,37.50953552,126.7729336
1026,EBS(이비에스)독서실,경기도 부천시 약대동 144-3번지 수향빌딩 4층 일부,37.51142216,126.7701568
1027,THE ART(디아트)그림공간미술교습소,경기도 부천시 약대동 209번지 부천위브트레지움2단지 202호,37.50953552,126.7729336
1028,수미술교실미술교습소,경기도 부천시 약대동 76-1번지 1층 일부,37.51340227,126.76911
1029,뮤직톡톡피아노음악교습소,경기도 부천시 약대동 217-1번지 부천아이파크 1층 105호,37.51333949,126.7647443
1030,뮤엠영어교습소,경기도 부천시 약대동 182-54번지 1층,37.51567326,126.76485
1031,빨간펜수학의달인약대위브수학교습소,경기도 부천시 약대동 196번지 두산위브트레지움 상가동 101호,37.51153645,126.76872
1032,향기음악교습소,경기도 부천시 약대동 139-3번지 2층,37.51287002,126.7687724
1033,화정서예교습소,경기도 부천시 약대동 100-1번지 2층 일부,37.51375611,126.7703531
1034,윤선생우리집앞영어교실약대아이파크1차영어교습소,경기도 부천시 약대동 182-57번지 1층 좌측일부,37.51539419,126.764964
1035,위브그린음악교습소,경기도 부천시 약대동 175번지 에이동 1층일부(103호),37.51076039,126.7726924
1036,미류나무보습학원,경기도 부천시 약대동 104번지 2층,37.51403439,126.769832
1037,이화음악학원,경기도 부천시 약대동 216-1번지 120동 2층 201호,37.51587289,126.7655506
1038,미류나무피아노학원,경기도 부천시 약대동 97-2번지 2층 일부,37.51417941,126.7702726
1039,미류나무미술학원,경기도 부천시 약대동 97-2번지 2층 일부,37.51417941,126.7702726
1040,프라임EM(이엠)보습학원,경기도 부천시 약대동 209번지 부천위브트레지움2단지 302호,37.50953552,126.7729336
1041,약대하버드수학보습학원,경기도 부천시 약대동 165-31번지 하버드수학학원 1~4층,37.51270544,126.7721322
1042,더존오투독서실,경기도 부천시 약대동 144-4번지 풍창빌딩 4층,37.51115171,126.7700785
1043,이앤아이음악학원,경기도 부천시 약대동 169-86번지 2층,37.5105633,126.7732698
1044,이화클라비어음악교습소,경기도 부천시 약대동 82-5번지 2층,37.51484175,126.7680536
1045,클라라음악학원,경기도 부천시 여월동 54-8번지 2층,37.51870745,126.7972933
1046,여월비젼보습학원,경기도 부천시 여월동 334번지 여월프라자 6층 602호 603호,37.511677,126.8062706
1047,아이비보습학원,경기도 부천시 여월동 7-4번지 2층,37.51970181,126.7991796
1048,아이사랑피아노음악학원,경기도 부천시 여월동 3-48번지 2층,37.51989873,126.7984325
1049,햇빛과단비음악학원,경기도 부천시 여월동 4-4번지 2층 일부,37.52084033,126.7958848
1050,애니캔에듀보습학원,경기도 부천시 여월동 5-29번지 3층,37.51973307,126.7964308
1051,한우리독서토론논술학원,경기도 부천시 여월동 334번지 여월프라자 401호 일부,37.511677,126.8062706
1052,진솔음악학원,경기도 부천시 여월동 6-10번지 상명빌딩 2층,37.51964434,126.7972116
1053,해법샐리보습학원,"경기도 부천시 여월동 330번지 폴리프라자 202호, 203호, 205호",37.51092797,126.8055486
1054,마술피리음악학원,경기도 부천시 여월동 340번지 201.202호,37.50939697,126.8059598
1055,잉글리쉬무무여월보습학원,경기도 부천시 여월동 330번지 폴리프라자 204호,37.51092797,126.8055486
1056,끝장스터디(study)보습학원,경기도 부천시 여월동 52-13번지 2층,37.51989364,126.7955141
1057,아이탑컴퓨터학원,경기도 부천시 여월동 7-18번지 그린아트타운 2층 202호,37.51962187,126.7998473
1058,여월독서실,경기도 부천시 여월동 334번지 여월프라자 202호,37.511677,126.8062706
1059,빨간펜수학의달인여월수학교습소,경기도 부천시 여월동 54-5번지 1층,37.51870648,126.796739
1060,칸타빌레음악교습소,경기도 부천시 여월동 320번지 여월휴먼시아 상가 202호,37.51292611,126.8043218
1061,송화음악교습소,경기도 부천시 여월동 316번지 여월휴먼시아5단지 상가 203호,37.51173121,126.8010223
1062,뮤엠여월캠퍼스영어교습소,경기도 부천시 여월동 54-8번지 1층 일부,37.51870745,126.7972933
1063,메카수학교습소,경기도 부천시 여월동 340번지 여월휴먼시아 상가 203호,37.50939697,126.8059598
1064,피카소아트미술교습소,경기도 부천시 여월동 335번지 정방프라자 202호 일부,37.51128989,126.8064638
1065,홍선생미술아트센터미술교습소,경기도 부천시 여월동 340번지 여월휴먼시아3단지아파트 상가 205호,37.50939697,126.8059598
1066,모닝잉글리쉬영어교습소,"경기도 부천시 여월동 47-16번지 가람채 가동 203호, 우측일부",37.51831224,126.7979957
1067,차스매쓰캔수학교습소,경기도 부천시 여월동 335번지 두오파크프라자 202호 일부,37.51128989,126.8064638
1068,아트이화미술교습소,경기도 부천시 여월동 330번지 폴리프라자 104호 일부,37.51092797,126.8055486
1069,쏠트(SALT)영어교습소,경기도 부천시 여월동 320번지 여월휴먼시아 201호,37.51292611,126.8043218
1070,R2(알투)보습학원,경기도 부천시 여월동 2-19번지 3층,37.51995418,126.7992355
1071,이화음악교습소,경기도 부천시 여월동 330번지 폴리프라자 104호 일부,37.51092797,126.8055486
1072,루미에르아트미술교습소,경기도 부천시 여월동 47-16번지 2층 203호 우측 일부,37.51831224,126.7979957
1073,TPM(티피엠)수학교습소,경기도 부천시 여월동 6-35번지 2층,37.51933902,126.7978006
1074,웅진북클럽스터디센터여월학원,경기도 부천시 여월동 335번지 정방프라자 204호,37.51128989,126.8064638
1075,이-매쓰영어수학보습학원,경기도 부천시 여월동 334번지 여월프라자 3층 301호,37.511677,126.8062706
1076,제이시영어보습학원,경기도 부천시 여월동 4-4번지 2층 일부,37.52084033,126.7958848
1077,청명보습학원,"경기도 부천시 여월동 334번지 여월프라자 204호, 702호",37.511677,126.8062706
1078,여월미래보습학원,경기도 부천시 여월동 334번지 여월프라자 403호,37.511677,126.8062706
1079,여월옥스퍼드어학원,경기도 부천시 여월동 334번지 여월프라자 5층 504호,37.511677,126.8062706
1080,위너스보습학원,경기도 부천시 여월동 6-42번지 2층,37.51953671,126.7974947
1081,메릴랜드음악학원,경기도 부천시 여월동 334번지 여월프라자 6층 601호,37.511677,126.8062706
1082,경휘음악학원,경기도 부천시 여월동 8번지 3층 일부,37.51831524,126.7997377
1083,차스어학원,경기도 부천시 여월동 335번지 두오파크프라자 205호,37.51128989,126.8064638
1084,시대입시학원,경기도 부천시 역곡동 86-3번지 농협역곡동지점 4층 전체,37.48832186,126.8108772
1085,우리컴퓨터전산회계학원,경기도 부천시 역곡동 81-6번지 6층 일부,37.48559387,126.8121279
1086,D2(디투)댄스학원,경기도 부천시 역곡동 86-3번지 농협역곡동지점 3층,37.48832186,126.8108772
1087,역곡캠퍼스EiE(이아이이)고려대국제어학원,경기도 부천시 역곡동 111-9번지 704호,37.48656865,126.8131883
1088,삼성영어역곡보습학원,경기도 부천시 역곡동 108-5번지 3층 301호 일부,37.48859561,126.8130135
1089,하이큐보습학원,경기도 부천시 역곡동 85번지 3층 전체,37.4879252,126.8107425
1090,가브리엘음악보습학원,"경기도 부천시 역곡동 33-5번지 202호,216호",37.4865377,126.8052962
1091,하음음악학원,경기도 부천시 역곡동 106-5번지 보성주택 201호 일부,37.48898278,126.8128543
1092,MYbest(엠와이베스트)보습학원,경기도 부천시 역곡동 70-2번지 3층,37.48828992,126.8078809
1093,수진음악학원,경기도 부천시 역곡동 35-12번지 3층,37.48523092,126.8050962
1094,강예원수학보습학원,경기도 부천시 역곡동 34번지 거남빌딩 2층 일부,37.48601471,126.8050489
1095,시사왕호보습학원,경기도 부천시 역곡동 107-8번지 열린치과 2층,37.48862076,126.8118488
1096,프라임에듀부천공인중개사학원,"경기도 부천시 역곡동 112-1번지 역곡미래타운 302, 303호",37.48626289,126.8135509
1097,천재스터디보습학원,경기도 부천시 역곡동 74-136번지 3층 동측일부,37.48776229,126.8102907
1098,에이스영수보습학원,경기도 부천시 역곡동 86-6번지 3층 전체,37.48842944,126.810549
1099,엔담보습학원,경기도 부천시 역곡동 411번지 부천동부센트레빌3단지 상가 302호,37.4915133,126.8120676
1100,소리샘쏘울음악학원,경기도 부천시 역곡동 78-3번지 2층,37.48584249,126.8098773
1101,Xmagic(엑스매직)마술학원,경기도 부천시 역곡동 84-13번지 신성빌딩 3층 일부,37.48709701,126.8111856
1102,파고다주니어역곡어학원,"경기도 부천시 역곡동 111-2번지 청도포그니에 청도프라자빌딩 303호,304호",37.48692948,126.8134587
1103,해냄독서실,경기도 부천시 역곡동 27-14번지 3층,37.48348992,126.803857
1104,다예음악미술학원,"경기도 부천시 역곡동 103-5번지 영풍빌딩 2층,3층",37.49015114,126.8110421
1105,YT와이티어학원,경기도 부천시 역곡동 107-8번지 열린치과 3층,37.48862076,126.8118488
1106,역곡페르마보습학원,경기도 부천시 역곡동 111-9번지 로하스타워 504호,37.48656865,126.8131883
1107,웅지보습학원,경기도 부천시 역곡동 78번지 금강빌딩 5층 전체,37.48542641,126.8088833
1108,가대삼성영어보습학원,경기도 부천시 역곡동 29-21번지 2층,37.48629379,126.8049124
1109,즐거운피아노어드벤쳐음악학원,경기도 부천시 역곡동 201-28번지 2층,37.4889574,126.8138833
1110,부천동곡해법영어교습소,경기도 부천시 역곡동 202-1번지 대림이편한세상 상가동 1층 101호,37.48975946,126.8139943
1111,현암한문교습소,경기도 부천시 역곡동 107-20번지 3층 전체,37.48892684,126.8116898
1112,해법가대영어교습소,경기도 부천시 역곡동 413번지 역곡3차 한양수자인아파트 3호,37.48501655,126.8062161
1113,SKY(스카이)영어교습소,경기도 부천시 역곡동 83-9번지 2층 전체,37.48684634,126.8121813
1114,한호정선생수학교습소,경기도 부천시 역곡동 103-21번지 그린원룸텔 102호,37.4898991,126.8111898
1115,안미경피아노교습소,경기도 부천시 역곡동 212-2번지 한국아파트 상가동 1층 102호,37.49278612,126.8135683
1116,C.L.E(씨엘이)영어교습소,경기도 부천시 역곡동 29-11번지 오페라하우스빌 102호,37.48678914,126.8047981
1117,June(준)음악교습소,경기도 부천시 역곡동 100-8번지 103호,37.49037386,126.8094925
1118,아트앤아트미술교습소,경기도 부천시 역곡동 29-22번지 2층,37.48637505,126.805014
1119,꿈꾸는창작미술교습소,경기도 부천시 역곡동 106-5번지 201호 좌측일부,37.48898278,126.8128543
1120,with piano(위드피아노)음악교습소,경기도 부천시 역곡동 70-2번지 103호,37.48828992,126.8078809
1121,한우리논술교습소,경기도 부천시 역곡동 109-19번지 은하빌딩 2층 전체,37.48782146,126.8134565
1122,역곡야베스영어교습소,경기도 부천시 역곡동 107-12번지 목화연립 201호,37.48926006,126.8115985
1123,피카소도예미술학원,경기도 부천시 역곡동 115-9번지 2층 일부,37.48798415,126.8137726
1124,펠루카미용학원,경기도 부천시 역곡동 86-6번지 4층 전체,37.48842944,126.810549
1125,디딤돌보습학원,경기도 부천시 역곡동 18-11번지 3층,37.48392541,126.8003283
1126,안당독서실,"경기도 부천시 역곡동 99-4번지 3층,4층",37.48920357,126.8101061
1127,가브리엘음악보습학원,"경기도 부천시 역곡동 33-5번지 202호,216호",37.4865377,126.8052962
1128,은성미술학원,경기도 부천시 역곡동 36-5번지 2층 일부,37.48587244,126.8061799
1129,YBM(와이비엠)시사잉글루보습학원,경기도 부천시 역곡동 74-136번지 청경빌딩 2층,37.48776229,126.8102907
1130,이레해법영어보습학원,경기도 부천시 역곡동 70-2번지 2층,37.48828992,126.8078809
1131,중앙무용학원,경기도 부천시 역곡동 107-8번지 열린치과 5층,37.48862076,126.8118488
1132,샘터플러스브레인셈보습학원,경기도 부천시 역곡동 67-7번지 2층 201호,37.48931978,126.8095404
1133,스터디라운지독서실,경기도 부천시 역곡동 85번지 2층 전체,37.4879252,126.8107425
1134,지오입시학원,경기도 부천시 역곡동 84-8번지 3층 일부,37.4873777,126.8120442
1135,꿈사랑음악학원,경기도 부천시 역곡동 23-1번지,37.48367775,126.8030425
1136,케이플러스보습학원,경기도 부천시 역곡동 108-5번지 3층 일부,37.48859561,126.8130135
1137,우리컴퓨터전산회계학원,경기도 부천시 역곡동 81-6번지 6층 일부,37.48559387,126.8121279
1138,동곡음악학원,경기도 부천시 역곡동 225-6번지 2층,37.48956546,126.816652
1139,역곡대성제넥스보습학원,경기도 부천시 역곡동 84-13번지 신성빌딩 2층 전체,37.48709701,126.8111856
1140,대림소리엘음악학원,경기도 부천시 역곡동 202-1번지 대림e편한세상1차아파트 2층 202호,37.48975946,126.8139943
1141,e(이)해법보습학원,경기도 부천시 역곡동 111-9번지 703호,37.48656865,126.8131883
1142,헬로잉글리시영어보습학원,경기도 부천시 역곡동 66-16번지 301호 일부,37.48967982,126.8093246
1143,다예음악미술학원,"경기도 부천시 역곡동 103-5번지 영풍빌딩 2층,3층",37.49015114,126.8110421
1144,역곡보습학원,경기도 부천시 역곡동 106-5번지 보성주택 201호 일부,37.48898278,126.8128543
1145,영일하모니음악학원,경기도 부천시 역곡동 74-136번지 청호빌딩 3층 일부,37.48776229,126.8102907
1146,오투골든벨독서실,"경기도 부천시 역곡동 201-27번지 2,3층",37.4888779,126.8148785
1147,동부리즈음악학원,경기도 부천시 역곡동 411번지 부천동부센트레빌 3층 301호,37.4915133,126.8120676
1148,전원음악학원,경기도 부천시 역곡동 86-3번지 농협역곡동지점 2층 일부,37.48832186,126.8108772
1149,윤선생IGSE(아이지에스이)아카데미부천오정보습학원,경기도 부천시 오정동 181-8번지 오정동우체국 3층,37.53031303,126.7876564
1150,오정비타민독서실,경기도 부천시 오정동 177-9번지 3층 301호 302호,37.52989742,126.7870241
1151,아이엘무용학원,경기도 부천시 오정동 725번지 오정프라자 4층 404호,37.52978725,126.7859044
1152,정우보습학원,경기도 부천시 오정동 192-22번지 2층 201호,37.52944812,126.7876815
1153,드림음악학원,경기도 부천시 오정동 558-5번지 2층,37.52767145,126.7867364
1154,Joy(조이)음악교습소,경기도 부천시 오정동 717번지 오정생활휴먼시아 상가동 205호,37.53078196,126.7829939
1155,e(이)해법수학영어보습학원,경기도 부천시 오정동 725번지 오정프라자 301호,37.52978725,126.7859044
1156,오정능력보습학원,"경기도 부천시 오정동 216-1번지 401,402호",37.52950682,126.7852943
1157,열린음악학원,경기도 부천시 오정동 579-11번지 3층,37.52695627,126.7848831
1158,솔루니오정논술교습소,경기도 부천시 오정동 547-4번지 삼두아파트 1층 105호,37.52859431,126.7888492
1159,눈높이러닝센터오정보습학원,경기도 부천시 오정동 725번지 오정프라자 308호,37.52978725,126.7859044
1160,가람보습학원,경기도 부천시 오정동 558-5번지 1층,37.52767145,126.7867364
1161,고은음악학원,경기도 부천시 오정동 137-1번지 202호,37.52689922,126.7983229
1162,꿈의공작소미술교습소,경기도 부천시 오정동 574-8번지 1층 일부,37.52758854,126.7857411
1163,오성보습학원,"경기도 부천시 오정동 546-7번지 세일빌딩 3,4",37.52906212,126.7884633
1164,라임음악학원,경기도 부천시 오정동 583-11번지 2층,37.52525503,126.7857704
1165,대인보습학원,경기도 부천시 오정동 579-11번지 2층,37.52695627,126.7848831
1166,샤인음악학원,경기도 부천시 오정동 546-7번지 세일빌딩 2층 전체,37.52906212,126.7884633
1167,두드림독서실,경기도 부천시 오정동 576-4번지 3층,37.52783821,126.7843262
1168,아름소리음악학원,경기도 부천시 오정동 114-54번지 덕산빌딩 3층,37.52858806,126.7903765
1169,YBM(와이비엠)시사영어수학보습학원,"경기도 부천시 오정동 725번지 오정프라자 401호, 403호",37.52978725,126.7859044
1170,안소희피아노음악학원,경기도 부천시 오정동 717번지 오정생활휴먼시아 상가동 2층 201~203호,37.53078196,126.7829939
1171,EM(이엠)러닝센타보습학원,경기도 부천시 오정동 559-10번지 맨스타빌딩 2층,37.52764601,126.7876075
1172,숲피아노교습소,경기도 부천시 오정동 726번지 오정생활휴먼시아 상가동 201호,37.53100521,126.7867946
1173,SJ(에스제이)음악학원,경기도 부천시 오정동 543번지 신오빌딩 2층 일부,37.52948203,126.7865162
1174,꿈꾸는다빈치미술교습소,경기도 부천시 오정동 726번지 휴먼시아아파트 상가 2층 203호,37.53100521,126.7867946
1175,패턴스터디오정캠퍼스보습학원,경기도 부천시 오정동 181-8번지 오정우체국 5층,37.53031303,126.7876564
1176,공터영어옥길센터보습학원,경기도 부천시 옥길동 726-2번지 4층 401호,37.46762597,126.8222906
1177,부천옥길소마보습학원,경기도 부천시 옥길동 726-1번지 센타프라자 5층 501호,37.46787851,126.8224595
1178,루나무용학원,경기도 부천시 옥길동 726-3번지 제일프라자 502호,37.46740048,126.8221329
1179,옥길클라라음악학원,경기도 부천시 옥길동 726-1번지 센타프라자 403호,37.46787851,126.8224595
1180,웅진북클럽학습센터옥길보습학원,"경기도 부천시 옥길동 744-2번지 4층 402호, 403호",37.46651949,126.8234349
1181,차수학뉴턴보습학원,경기도 부천시 옥길동 726-2번지 4층 402호,37.46762597,126.8222906
1182,아트앤하트옥길미술학원,경기도 부천시 옥길동 726-4번지 상림프라자 601호,37.46718393,126.8219299
1183,올리브멜로디음악미술학원,경기도 부천시 옥길동 726-2번지 시티프라자 501호,37.46762597,126.8222906
1184,마리오아카데미어학원,"경기도 부천시 옥길동 726-2번지 3층 301, 302호",37.46762597,126.8222906
1185,올리브멜로디음악미술학원,경기도 부천시 옥길동 726-2번지 시티프라자 501호,37.46762597,126.8222906
1186,도담매스터수학보습학원,경기도 부천시 옥길동 744-2번지 6층 603호,37.46651949,126.8234349
1187,뮤엠옥길캠퍼스영어보습학원,경기도 부천시 옥길동 726-3번지 제일프라자 602호,37.46740048,126.8221329
1188,노마드영재보습학원,경기도 부천시 옥길동 726-3번지 제일프라자 601호,37.46740048,126.8221329
1189,예담음악학원,경기도 부천시 옥길동 777-2번지 602호,37.46234956,126.8129895
1190,옥길소리엘음악학원,경기도 부천시 옥길동 777-1번지 2층 206호,37.46257429,126.8126611
1191,그랜드음악학원,경기도 부천시 옥길동 744-2번지 6층 602호,37.46651949,126.8234349
1192,토킹스타옥길영수보습학원,"경기도 부천시 옥길동 777-2번지 7층 702호, 703호",37.46234956,126.8129895
1193,나디아잉글리쉬어학원,"경기도 부천시 옥길동 777-1번지 208호, 209호",37.46257429,126.8126611
1194,예솔음악학원,"경기도 부천시 옥길동 739-1번지 2층 204, 205, 206호",37.46495746,126.8272366
1195,이투스(ETOOS)수학보습학원,"경기도 부천시 옥길동 744-2번지 7층 703,705호",37.46651949,126.8234349
1196,쎈수학러닝센터옥길정수학보습학원,경기도 부천시 옥길동 726-2번지 씨티프라자 503호,37.46762597,126.8222906
1197,옥길EiE(이아이이)어학원,경기도 부천시 옥길동 726-1번지 센타프라자 4층 402호,37.46787851,126.8224595
1198,스터디모드보습학원,경기도 부천시 옥길동 744-2번지 7층 702호,37.46651949,126.8234349
1199,명품영어교습소,경기도 부천시 옥길동 744-2번지 4층 405호 좌측일부,37.46651949,126.8234349
1200,뮤엠영어버들캠퍼스영어교습소,경기도 부천시 옥길동 748-1번지 엘에이치옥길센트럴힐 2층 201호,37.46221516,126.8250502
1201,명품수학교습소,경기도 부천시 옥길동 744-2번지 4층 405호,37.46651949,126.8234349
1202,힐링아트미술교습소,경기도 부천시 옥길동 748-1번지 엘에이치옥길센트럴힐 2층 203호,37.46221516,126.8250502
1203,퍼펙트리딩영어교습소,경기도 부천시 옥길동 744-2번지 4층 404호,37.46651949,126.8234349
1204,버들삼성영어교습소,경기도 부천시 옥길동 739-1번지 제이드카운티2단지 2층 201호,37.46495746,126.8272366
1205,부천키즈바둑교습소,경기도 부천시 옥길동 726-2번지 5층 502호 일부,37.46762597,126.8222906
1206,천사피아노교습소,경기도 부천시 옥길동 748-1번지 엘에이치옥길센트럴힐 2층 204호,37.46221516,126.8250502
1207,샘미술교습소,경기도 부천시 옥길동 744-2번지 7층 704호,37.46651949,126.8234349
1208,한울독서실,"경기도 부천시 원미동 173-2번지 부흥빌딩 3,4층",37.49134774,126.789046
1209,능률보습학원,경기도 부천시 원미동 24-10번지 2층 전체,37.49856334,126.7933227
1210,준쌤보습학원,"경기도 부천시 원미동 114-1번지 원미동풍림아파트 2층 201호, 202호",37.49139714,126.7914657
1211,뮤엠영어수학보습학원,경기도 부천시 원미동 86-12번지 2층 전체,37.49476088,126.7881543
1212,박상희음악학원,경기도 부천시 원미동 76-3번지 2층,37.49428933,126.7914688
1213,뉴스카이보습음악학원,경기도 부천시 원미동 95-11번지 2층 동주한의원,37.4928193,126.7906814
1214,프라미스보습음악학원,경기도 부천시 원미동 128-3번지 원미종합시장 202호,37.49195652,126.7869072
1215,소리향기색소폰실용음악학원,경기도 부천시 원미동 94-10번지 2층 전체,37.4932618,126.7912456
1216,정다운코리아엠보습학원,경기도 부천시 원미동 94-3번지 신영빌딩 4층,37.49342402,126.7912677
1217,라엘음악학원,경기도 부천시 원미동 123-1번지 2층 일부 엔젤학원,37.4928772,126.7878204
1218,투더탑보습학원,경기도 부천시 원미동 2-2번지 3층 전체,37.49817459,126.7925774
1219,굿샘멘토보습학원,경기도 부천시 원미동 166-6번지 2층 일부,37.49462512,126.7928248
1220,퍼스트보습학원,"경기도 부천시 원미동 114-1번지 114-115호,122-127호",37.49139714,126.7914657
1221,레이첼영수보습학원,경기도 부천시 원미동 86-3번지 2층 전체,37.49481439,126.7878488
1222,반석피아노학원,경기도 부천시 원미동 54-8번지,37.49542423,126.7912734
1223,뉴스카이보습음악학원,경기도 부천시 원미동 95-11번지 2층 동주한의원,37.4928193,126.7906814
1224,썬에듀보습학원,경기도 부천시 원미동 116-5번지 2층 전체,37.49145777,126.7901086
1225,BOB(밥)독서실,경기도 부천시 원미동 94-5번지 명성프라자 403호,37.49373056,126.79138
1226,눈높이러닝원미보습학원,경기도 부천시 원미동 94-13번지 2층,37.49284715,126.7911337
1227,정다운지앤비어학원,경기도 부천시 원미동 122-4번지 2층,37.49278803,126.7883295
1228,SKY독서실,경기도 부천시 원미동 97-1번지 경원빌딩 2층,37.49417921,126.7903497
1229,높은산미술보습학원,경기도 부천시 원미동 1-8번지 태진빌딩 2층 일부,37.49840014,126.7927464
1230,정다운수학보습학원,경기도 부천시 원미동 122-4번지 3층,37.49278803,126.7883295
1231,잉글리시아이원미보습학원,경기도 부천시 원미동 94-10번지 4층,37.4932618,126.7912456
1232,맨투맨보습학원,경기도 부천시 원미동 95-2번지 2~3층,37.49387407,126.7910177
1233,랍슨키즈영어교습소,경기도 부천시 원미동 94-5번지 원미동명성프라자 502호 일부,37.49373056,126.79138
1234,원미로해법수학교습소,경기도 부천시 원미동 82-13번지 1층 일부,37.49451174,126.7898851
1235,멘토수학교습소,경기도 부천시 원미동 114-1번지 풍림아파트 상가 104호,37.49139714,126.7914657
1236,새로운음악교습소,경기도 부천시 원미동 122-5번지 명인음악학원 2층 일부,37.49281475,126.7881598
1237,그림마을미술교습소,경기도 부천시 원미동 114-1번지 풍림아파트 상가동 214호,37.49139714,126.7914657
1238,예일미술교습소,경기도 부천시 원미동 117-2번지 명성연립 102호,37.49270784,126.7888273
1239,청리서예교습소,경기도 부천시 원미동 54-12번지 3층,37.49579344,126.7911593
1240,피아첼음악교습소,경기도 부천시 원미동 114-1번지 원미동풍림아파트 103호,37.49139714,126.7914657
1241,올백수학교습소,경기도 부천시 원미동 125-13번지 1층,37.4925974,126.7875498
1242,숲음악교습소,경기도 부천시 원미동 86-18번지 1층 일부,37.49484096,126.7875999
1243,원미탑수학교습소,경기도 부천시 원미동 114-1번지 원미동풍림아파트 113호,37.49139714,126.7914657
1244,뉴늘찬양음악교습소,경기도 부천시 원미동 102-14번지 2층 전체,37.4932363,126.787107
1245,해법영어교습소,경기도 부천시 원미동 114-1번지 원미동풍림아파트 119호,37.49139714,126.7914657
1246,베리타스수학교습소,경기도 부천시 원미동 114-1번지 원미동풍림아파트 112호,37.49139714,126.7914657
1247,MF(엠에프)실용음악학원,경기도 부천시 원미동 193-22번지 2층,37.48861903,126.7897661
1248,청출어람보습학원,경기도 부천시 원미동 157-16번지 2층,37.49453586,126.7933
1249,유일보습학원,경기도 부천시 원미동 97-1번지 경원빌딩 3층 일부,37.49417921,126.7903497
1250,그림터미술학원,경기도 부천시 원미동 109-17번지 2층 전체,37.49337006,126.786349
1251,높은산미술보습학원,경기도 부천시 원미동 1-8번지 태진빌딩 2층 일부,37.49840014,126.7927464
1252,프라미스보습음악학원,경기도 부천시 원미동 128-3번지 원미종합시장 202호,37.49195652,126.7869072
1253,솔로몬보습학원,경기도 부천시 원미동 94-13번지 2층 전체,37.49284715,126.7911337
1254,노란잠수함미술학원,경기도 부천시 원종동 132-2번지 2층,37.52764612,126.8030497
1255,나눌샘미술보습학원,경기도 부천시 원종동 352번지 2층 201호,37.51701265,126.8073538
1256,알파플러스어학원,경기도 부천시 원종동 375-6번지 2층 1호,37.5188458,126.8044306
1257,소나타음악학원,경기도 부천시 원종동 372-5번지 2층 일부,37.51872984,126.8051322
1258,피아노이야기음악학원,경기도 부천시 원종동 70-8번지 오성빌딩 3층,37.53086606,126.8050775
1259,나눌샘미술보습학원,경기도 부천시 원종동 352번지 2층 201호,37.51701265,126.8073538
1260,주신음악학원,경기도 부천시 원종동 470번지 금호어울림 301동 401호 일부,37.52856493,126.8029341
1261,정무보습학원,경기도 부천시 원종동 67-11번지 경복빌딩 3층,37.53137097,126.8052912
1262,능력주니어플러스보습학원,경기도 부천시 원종동 372-6번지 제일빌딩 3층,37.51909024,126.8051312
1263,아트펠리아미술학원,"경기도 부천시 원종동 213-3번지 신진타워맨션 202호 일부, 203호",37.52286976,126.8023837
1264,에듀킴스보습학원,경기도 부천시 원종동 132-2번지 3층,37.52764612,126.8030497
1265,공부의별이되는보습학원,경기도 부천시 원종동 375-3번지 그린메디칼프라자 201호 일부,37.51920619,126.8044296
1266,창의와탐구입시학원,경기도 부천시 원종동 233-13번지 진영빌딩 2층 일부,37.52609091,126.8051241
1267,플라이잉글리쉬보습학원,경기도 부천시 원종동 231-15번지 오정빌딩 3층,37.52778477,126.8051309
1268,오정음악학원,경기도 부천시 원종동 265-3번지 1층 일부,37.52753448,126.8063194
1269,비타민산소독서실,경기도 부천시 원종동 374-2번지 능력프라자 2층,37.52031442,126.804438
1270,에이원보습학원,경기도 부천시 원종동 138-32번지 3층 302호 일부,37.52648006,126.8008242
1271,눈높이원종러닝센터보습학원,경기도 부천시 원종동 133번지 우성빌라 3층,37.52705995,126.8027345
1272,멘토21보습학원,경기도 부천시 원종동 372번지 3층 304호,37.51945067,126.8051529
1273,중앙미용학원,경기도 부천시 원종동 228-8번지 현대빌딩 3층,37.52470227,126.8044603
1274,하이얀음악학원,경기도 부천시 원종동 141-4번지 4층,37.52411651,126.7990998
1275,비상아이비츠신혜보습학원,경기도 부천시 원종동 219-2번지 대풍빌딩 2~3층,37.52536652,126.8029879
1276,이스크라보습학원,경기도 부천시 원종동 233-13번지 2층(일부),37.52609091,126.8051241
1277,파랑새미술학원,경기도 부천시 원종동 377-4번지 3층,37.51715082,126.8037677
1278,박태윤컴퓨터아카데미학원,경기도 부천시 원종동 208-16번지 3층,37.52564385,126.801822
1279,빡센영김보습학원,경기도 부천시 원종동 218-7번지 2층,37.52451062,126.8030128
1280,로뎀음악미술학원,경기도 부천시 원종동 245-5번지 2층(증축된 3층건물),37.52867028,126.8066559
1281,지앤비(GnB)보습학원,경기도 부천시 원종동 233-9번지 3~4층 전체,37.52539772,126.8054653
1282,부천바둑학원,경기도 부천시 원종동 373-10번지 4층,37.51995532,126.8052081
1283,원으뜸보습학원,경기도 부천시 원종동 374-4번지 3층 일부 천재속샘학원,37.519927,126.804439
1284,유니랭스영어보습학원,경기도 부천시 원종동 216번지 일흥빌딩 3층,37.52256398,126.8027126
1285,허브독서실,경기도 부천시 원종동 229-5번지 5층,37.52614381,126.8044339
1286,멘토초중보습학원,경기도 부천시 원종동 238-18번지 3층,37.52823187,126.8085123
1287,능력보습학원,경기도 부천시 원종동 374-2번지 3.4.5층,37.52031442,126.804438
1288,도연영수보습학원,경기도 부천시 원종동 199번지 3층,37.52383822,126.7996888
1289,수성음악보습학원,"경기도 부천시 원종동 221번지 203,204호",37.52500683,126.8034074
1290,JnH(제이엔에이치)우리들보습학원,경기도 부천시 원종동 231-13번지 2층,37.52745141,126.8051318
1291,숲속의음악가음악학원,경기도 부천시 원종동 132번지 2층 일부,37.52750988,126.8024052
1292,보스톤영어보습학원,경기도 부천시 원종동 230-2번지 2층 일,37.52731509,126.8044308
1293,TOP플러스보습학원,경기도 부천시 원종동 377-4번지 4층,37.51715082,126.8037677
1294,에이블2관보습학원,경기도 부천시 원종동 132-6번지,37.5277007,126.803355
1295,폴라리스음악학원,경기도 부천시 원종동 359번지 3층,37.51831131,126.8080969
1296,정스무용학원,경기도 부천시 원종동 154-4번지 새벽별교회 3층,37.52809003,126.8044853
1297,와이즈보습학원,경기도 부천시 원종동 141-4번지 4층 일부,37.52411651,126.7990998
1298,아트펠리아음악학원,"경기도 부천시 원종동 213-3번지 신진타워맨션 201호, 202호 일부",37.52286976,126.8023837
1299,수성음악보습학원,"경기도 부천시 원종동 221번지 203,204호",37.52500683,126.8034074
1300,채은음악학원,경기도 부천시 원종동 132-2번지 1층,37.52764612,126.8030497
1301,엘리트독서실,경기도 부천시 원종동 233-13번지 3.4층일부,37.52609091,126.8051241
1302,명륜study(스터디)보습학원,경기도 부천시 원종동 262-3번지 3~4층,37.52886679,126.8056258
1303,백두보습학원,경기도 부천시 원종동 281-1번지 진주상가 301호,37.52256851,126.8054049
1304,율로기아음악학원,경기도 부천시 원종동 209-11번지 2층,37.5251474,126.8012916
1305,오렌지독서실,경기도 부천시 원종동 371-2번지 성진프라자 601~602호,37.51787385,126.8051005
1306,보다더보습학원,경기도 부천시 원종동 281-15번지 정복빌딩 5층 일부,37.52186527,126.8051239
1307,예손음악학원,경기도 부천시 원종동 238-18번지 2층,37.52823187,126.8085123
1308,예영보습학원,경기도 부천시 원종동 359번지 2층,37.51831131,126.8080969
1309,아트빌미술피아노학원,경기도 부천시 원종동 275-5번지 2층,37.52514793,126.8069592
1310,도레미음악학원,경기도 부천시 원종동 375-10번지,37.5185931,126.8041824
1311,원종C&C(씨앤씨)미술학원,경기도 부천시 원종동 372-6번지 제일빌딩 5층,37.51909024,126.8051312
1312,공신보습학원,경기도 부천시 원종동 208-14번지 2층,37.52558932,126.8015506
1313,EM(이엠)보습학원,경기도 부천시 원종동 138-32번지 4층 일부,37.52648006,126.8008242
1314,프린스턴영어수학보습학원,경기도 부천시 원종동 238-5번지 2층 일부,37.52808762,126.8084562
1315,애플음악학원,경기도 부천시 원종동 366-5번지,37.51853478,126.8070217
1316,닥터신쌤보습학원,경기도 부천시 원종동 371-26번지 3층,37.51834306,126.8055178
1317,다우보습학원,경기도 부천시 원종동 231번지 부원빌딩 3층,37.52792893,126.8051305
1318,Joyful English(죠이풀잉글리쉬)영어교습소,경기도 부천시 원종동 361-4번지 성로빌딩 2층 202호,37.51856285,126.8076551
1319,Jina&apos;s(지나스)영어교습소,경기도 부천시 원종동 470번지 금호어울림 301동 204호,37.52856493,126.8029341
1320,대명해법영어교습소,경기도 부천시 원종동 132번지 2층 일부,37.52750988,126.8024052
1321,나무아뜨리에미술교습소,경기도 부천시 원종동 132번지 3층 2호,37.52750988,126.8024052
1322,리딩클럽원종영어교습소,경기도 부천시 원종동 382-5번지 3층,37.5196736,126.8037723
1323,운성피아노과외교습소,경기도 부천시 원종동 231-7번지 7호 2층,37.52717265,126.8054606
1324,김선희피아노교습소,경기도 부천시 원종동 241-11번지 2층,37.52850972,126.8076292
1325,아인음악교습소,경기도 부천시 원종동 366-2번지 1층 일부,37.51961596,126.8070189
1326,원종파랑새피아노교습소,경기도 부천시 원종동 377-4번지 2층 일부,37.51715082,126.8037677
1327,일대일(1:1)미래수학교습소,경기도 부천시 원종동 138-23번지 2층,37.5258138,126.8010975
1328,예쁜손피아노교습소,경기도 부천시 원종동 369번지 장미상가(2층) 203호,37.51745265,126.806459
1329,아르떼음악교습소,경기도 부천시 원종동 246번지 보강그린빌라 1층 일부,37.52806773,126.8073249
1330,라임음악교습소,경기도 부천시 원종동 360-28번지 낙원아트빌 1층 일부,37.5185373,126.8085488
1331,선향음악교습소,경기도 부천시 원종동 233-13번지 진영빌딩 4층 일부,37.52609091,126.8051241
1332,소미더수학교습소,경기도 부천시 원종동 470번지 금호어울림301동 202호,37.52856493,126.8029341
1333,오정삼성영어교습소,경기도 부천시 원종동 246-7번지 1층 일부,37.52786946,126.8072915
1334,날카로운수학교습소,경기도 부천시 원종동 212번지 3층,37.52386762,126.8010688
1335,잉글리시버디영어교습소,경기도 부천시 원종동 213-3번지 신진타워맨션 2층 204호,37.52286976,126.8023837
1336,유나스(Yuna&apos;s)영어교습소,경기도 부천시 원종동 470번지 원종동 금호 어울림 금호어울림아파트 상가 201호,37.52856493,126.8029341
1337,라엘음악교습소,경기도 부천시 원종동 371-27번지 2층,37.51834278,126.8053481
1338,빨간펜수학의달인원종수학교습소,경기도 부천시 원종동 361-4번지 성로빌딩 2층 일부,37.51856285,126.8076551
1339,매일중국어교습소,경기도 부천시 원종동 70-1번지 동문아파트 상가 2층 1호,37.53056714,126.804128
1340,한스화실미술교습소,경기도 부천시 원종동 211-2번지 4층 일부,37.52412203,126.8023238
1341,원종2동점해법수학교습소,경기도 부천시 원종동 150-7번지 1층 일부,37.52378195,126.7984106
1342,꿈꾸는음악교습소,경기도 부천시 원종동 361-4번지 성로빌딩 1층 일부,37.51856285,126.8076551
1343,라온수학교습소,경기도 부천시 원종동 132번지 3층 일,37.52750988,126.8024052
1344,음악세상음악교습소,경기도 부천시 원종동 179-65번지 2층,37.52995107,126.8074897
1345,T&S(티앤에스)보습학원,경기도 부천시 원종동 299-2번지 4층 일부,37.52808877,126.8091576
1346,시사영어수학보습학원,경기도 부천시 원종동 266-1번지 프라임영재사관학원 2층 일부,37.52737157,126.8058787
1347,로뎀음악미술학원,경기도 부천시 원종동 245-5번지 2층(증축된 3층건물),37.52867028,126.8066559
1348,일꿈음악학원,경기도 부천시 원종동 237-15번지 4층,37.52784441,126.8084907
1349,오름보습학원,경기도 부천시 원종동 134번지 3층,37.52656502,126.8030978
1350,일꿈보습학원,경기도 부천시 원종동 237-15번지 원종동,37.52784441,126.8084907
1351,연세독서실,경기도 부천시 원종동 375-9번지 2층,37.51859339,126.8043521
1352,아트빌미술피아노학원,경기도 부천시 원종동 275-5번지 2층,37.52514793,126.8069592
1353,부천정평보습학원,경기도 부천시 원종동 375-8번지 성산빌딩 3층 전체,37.51859367,126.8045217
1354,헤럴드보습학원,경기도 부천시 원종동 365-9번지 3층 전체,37.51992229,126.8070181
1355,에이블수학보습학원,경기도 부천시 원종동 224-4번지 3층,37.52178306,126.8044567
1356,Jlean(제이린)뮤직실용음악학원,경기도 부천시 원종동 229-4번지 석진빌딩 5층,37.52626093,126.8044336
1357,신혜보습학원,경기도 부천시 원종동 219-2번지 대풍빌딩 4층,37.52536652,126.8029879
1358,세명음악학원,경기도 부천시 원종동 216번지 일흥빌딩 4층 전체,37.52256398,126.8027126
1359,솔로몬o₂독서실,"경기도 부천시 원종동 231번지 부원빌딩 401호,501호",37.52792893,126.8051305
1360,웰이스턴보습학원,경기도 부천시 원종동 388-13번지 동영빌딩 2,37.51967906,126.8016796
1361,까치울삼성영어교습소,경기도 부천시 작동 33-1번지 1층 일부,37.51845736,126.8148269
1362,예인마을피아노학원,경기도 부천시 작동 30-8번지 3층,37.51850944,126.8192949
1363,수학의달인3030영어보습학원,경기도 부천시 작동 63-7번지 2층 일부,37.51656621,126.8043801
1364,음악풍경음악교습소,경기도 부천시 작동 33-12번지 1층 일부,37.51820754,126.8163772
1365,써니힐링구아어학원,"경기도 부천시 중동 1289번지 4층 402호, 403호",37.48984732,126.7675778
1366,나눔소리국악학원,경기도 부천시 중동 1134-2번지 골드존타워 602호,37.49962009,126.7752484
1367,민병철외국어보습학원,경기도 부천시 중동 1035-2번지 하나빌딩 501호 일부,37.50445422,126.7684933
1368,더퀸실용음악학원,경기도 부천시 중동 770-5번지 창신빌딩 4층 일부,37.49287261,126.7665507
1369,부천최재영바리스타학원,경기도 부천시 중동 1111번지 위브더스테이트 3층 317호,37.49865328,126.7785195
1370,파워독서실,경기도 부천시 중동 1208-4번지 3층,37.49481984,126.7716557
1371,워릭어학보습학원,경기도 부천시 중동 1058-4번지 서호빌딩 603호 ~ 608호,37.50376179,126.7737656
1372,위드매쓰보습학원,경기도 부천시 중동 1031-3번지 영라이프빌딩 504호 일부,37.50519985,126.7629154
1373,부천중동작심독서실,경기도 부천시 중동 752-3번지 3층 일부,37.49343156,126.7667185
1374,경원음악학원,"경기도 부천시 중동 1186번지 복사골건영 상가 4층 401,402호",37.49418204,126.7680505
1375,토리앙쥬보습미술학원,경기도 부천시 중동 1141번지 507.508.513.514.515호,37.50284019,126.772434
1376,서일영어수학논술보습학원,경기도 부천시 중동 1052-2번지 201호,37.50683988,126.7720711
1377,아이플래닛로봇학원,경기도 부천시 중동 1031-3번지 영라이프빌딩 302호,37.50519985,126.7629154
1378,신수학보습학원,경기도 부천시 중동 1145-2번지 네이버시티빌딩 602호,37.50111762,126.7715798
1379,마운트어학원,경기도 부천시 중동 1172번지 유치원생활편익시설 301호일부,37.49854103,126.7582775
1380,베르디음악학원,경기도 부천시 중동 1134-2번지 골드존타워 504호,37.49962009,126.7752484
1381,크라운스탁금융학원,경기도 부천시 중동 1141-1번지 무광오피스텔 3층 305호,37.50278683,126.772796
1382,중흥 JUST ONE(저스트원)영수보습학원,경기도 부천시 중동 1036번지 은하마을 상가동 2층 205호,37.50559725,126.767879
1383,베를린음악학원,경기도 부천시 중동 1034-5번지 씨티오피스 4층 403호,37.50462282,126.7671922
1384,JBMusic(제이비뮤직)실용음악학원,경기도 부천시 중동 1146-7번지 신풍프라자 7층 701호 일부,37.5016747,126.7707977
1385,후니홀릭수능작전소입시학원,"경기도 부천시 중동 1033-2번지 503호, 504호",37.50504019,126.7641599
1386,포텐수학과학입시학원,경기도 부천시 중동 1288번지 팰리스카운티 4층 405호,37.49045576,126.7654615
1387,APEX(에이펙스)영어보습학원,경기도 부천시 중동 1128-1번지 우성프라자 601호,37.49698158,126.7759688
1388,손영주보습학원,"경기도 부천시 중동 1034-4번지 드림빌딩 601,608호",37.504703,126.7667396
1389,새상지음악학원,경기도 부천시 중동 760-17번지 원진빌딩 3층 일부,37.49392816,126.7627705
1390,GOM(지오엠)수학보습학원,경기도 부천시 중동 1144-3번지 디아뜨갤러리3 A동 307호,37.50089536,126.7731072
1391,중동탑보습학원,경기도 부천시 중동 1051-1번지 301호,37.50867364,126.7699052
1392,더필음악학원,경기도 부천시 중동 1102번지 꿈마을 302호~305호,37.49889929,126.7799663
1393,우리보습학원,경기도 부천시 중동 1128-1번지 우성프라자 501호,37.49698158,126.7759688
1394,연우해법보습학원,경기도 부천시 중동 628-7번지 드림씨티빌딩 402호,37.49637372,126.7646851
1395,귀큰여우창작소미술학원,경기도 부천시 중동 1056번지 제일프라자 503호,37.50433906,126.7694889
1396,포도라임음악학원,"경기도 부천시 중동 1170번지 포도마을 포도마을삼보상가 201-1,202호",37.50101138,126.7590724
1397,M(엠)파워수학보습학원,경기도 부천시 중동 1134번지 새롬프라자 601호,37.50020541,126.775077
1398,서일입시학원,"경기도 부천시 중동 1128-2번지 한양프라자 303호일부,304호일부,305호",37.49670242,126.7760488
1399,현음악학원,경기도 부천시 중동 1208-3번지 4층 일부,37.49484645,126.7714408
1400,아이지니어스문화예술종합학원,경기도 부천시 중동 1146-7번지 신풍프라자 801호,37.5016747,126.7707977
1401,TreeTopEnglish(트리탑영어)보습,경기도 부천시 중동 1033-3번지 굿모닝프라자 416호,37.50497781,126.7644994
1402,JEJE(제제)음악학원,경기도 부천시 중동 1134-2번지 골드존타워 501호 일부,37.49962009,126.7752484
1403,유피(UP)영수보습학원,경기도 부천시 중동 1134-2번지 골드존타워 705호,37.49962009,126.7752484
1404,TOPLY(토플리)어학보습학원,경기도 부천시 중동 1289번지 팰리스카운티현대아이파크상가 408호.409호 410호,37.48984732,126.7675778
1405,문정수오렌지미술학원,경기도 부천시 중동 1170번지 포도마을삼보상가 307호,37.50101138,126.7590724
1406,잉글리시아이은하마을보습학원,경기도 부천시 중동 1034-4번지 드림빌딩 5층 504호,37.504703,126.7667396
1407,화인미술학원,경기도 부천시 중동 1289번지 팰리스카운티아이파크 상가 502호,37.48984732,126.7675778
1408,NewClass(뉴클래스)보습학원,경기도 부천시 중동 1128번지 그린프라자 602호,37.49726077,126.7759115
1409,중동비상입시학원,"경기도 부천시 중동 1289번지 팰리스카운티 아이파크상가 505호,505-1호",37.48984732,126.7675778
1410,선두페르마보습학원,경기도 부천시 중동 1033번지 우신빌딩 604호,37.50512,126.7635263
1411,리드수능하이논술보습학원,경기도 부천시 중동 1058-2번지 중동프라자 6층 603호,37.50384191,126.7732678
1412,중동G1230학원,경기도 부천시 중동 1134-4번지 굿모닝로얄프라자 5~8층,37.49928693,126.7753512
1413,국어의맥강아보습학원,경기도 부천시 중동 1031-2번지 골든벨타워 502호,37.5052352,126.762576
1414,볼쇼이발레아카데미무용학원,경기도 부천시 중동 1141-5번지 다운타운 202호,37.50261835,126.7741876
1415,책읽는루브르미술학원,"경기도 부천시 중동 1112번지 위브더스테이트 위브더스테이트상가8동 211호,212호,213호일부",37.4973745,126.7788513
1416,뮤직아이드림음악학원,경기도 부천시 중동 1112번지 위브더스테이트 8동 210호,37.4973745,126.7788513
1417,중동반석음악학원,경기도 부천시 중동 1030-1번지 반석유치원 3층 일부,37.50823278,126.7612431
1418,비상잉글리시아이수학보습학원,경기도 부천시 중동 1170번지 포도마을 2층 일부,37.50101138,126.7590724
1419,로랜드어학원,경기도 부천시 중동 1035-1번지 크리스탈빌딩,37.50450751,126.7681086
1420,희망에듀원격학원,경기도 부천시 중동 1159-8번지 하성빌딩 701호 일부,37.50270426,126.7629912
1421,하이엔드입시학원,경기도 부천시 중동 682번지 서천빌딩 7층 701호 일부,37.49606227,126.7621643
1422,꿈을이루는컴퓨터보습학원,경기도 부천시 중동 679-5번지 인성프라자 4층,37.49667397,126.7616874
1423,상아음악학원,경기도 부천시 중동 1170번지 포도마을 2층 일부,37.50101138,126.7590724
1424,박대수영어보습학원,경기도 부천시 중동 1033-3번지 굿모닝프라자 503호,37.50497781,126.7644994
1425,ING보습학원,경기도 부천시 중동 1061번지 한신빌딩 3층,37.5063693,126.7756577
1426,CNT(씨엔티)스터디센터부천시청센터독서실,경기도 부천시 중동 1034-4번지 드림빌딩 4층 405호,37.504703,126.7667396
1427,레브엘몬드어학원,경기도 부천시 중동 1149번지 부천중동리슈빌엔클래스 209A호 일부,37.503231,126.7695715
1428,SM Math에스엠매쓰수학보습학원,경기도 부천시 중동 1170번지 포도마을삼보상가 205호,37.50101138,126.7590724
1429,정미정수학보습학원,경기도 부천시 중동 1289번지 팰리스카운티아이파크 상가 309호,37.48984732,126.7675778
1430,중동오은령무용학원,"경기도 부천시 중동 1160-3번지 필레오트윈파크2동 3층 306호 일부, 307호",37.50209384,126.7641014
1431,폴리음악학원,경기도 부천시 중동 1170번지 포도마을 삼보상가 301호,37.50101138,126.7590724
1432,플래뮤아트센터부천미술학원,"경기도 부천시 중동 1035-3번지 중동메디칼 501호,502호",37.50440087,126.7688554
1433,EST(이에스티)실용음악학원,경기도 부천시 중동 1034-5번지 씨티오피스 602호,37.50462282,126.7671922
1434,뷰티풀스토리독서실,경기도 부천시 중동 1128번지 그린프라자 601호,37.49726077,126.7759115
1435,드림오투독서실,경기도 부천시 중동 1056번지 제일프라자 604호,37.50433906,126.7694889
1436,중동에이프릴어학원,경기도 부천시 중동 1129-3번지 3층일부 중동공영조회주차장,37.49792713,126.7757172
1437,예란음악학원,경기도 부천시 중동 1051-1번지 2층 205호,37.50867364,126.7699052
1438,리즈음악학원,경기도 부천시 중동 1289번지 아이파크 상가 504호,37.48984732,126.7675778
1439,메타스터디보습학원,경기도 부천시 중동 730-13번지 4층 전체,37.49440245,126.7611859
1440,꿈을이루는컴퓨터보습학원,경기도 부천시 중동 679-5번지 인성프라자 4층,37.49667397,126.7616874
